[
  {
    "name": "PERUMBAVOOR TYRES",
    "address": "MUKKANANCHERY BYE-PASS ROAD",
    "city": "PERUMBAVOOR",
    "state": "",
    "pincode": "",
    "phone": "9388608098",
    "email": "pbvrtyre@gmail.com",
    "latitude": "10.055571",
    "longitude": "76.346552",
    "dealer_type": ""
  },
  {
    "name": "WHEEL & WHEELS",
    "address": "16/529, NEAR NIPPON TOYOTA",
    "city": "ERNAKULAM",
    "state": "",
    "pincode": "",
    "phone": "9447001400",
    "email": "wheelandwheels@gmail.com",
    "latitude": "10.055097",
    "longitude": "76.34693",
    "dealer_type": ""
  },
  {
    "name": "UNITED TYRES",
    "address": "AISWARYA COMPLEX,",
    "city": "CHALAKUDY",
    "state": "",
    "pincode": "",
    "phone": "9846580266",
    "email": "unitedtyreschalakudy@gmail.com",
    "latitude": "10.310936",
    "longitude": "76.330982",
    "dealer_type": ""
  },
  {
    "name": "BRISTOL TYRES",
    "address": "ERANHIPALAM, CALICUT",
    "city": "KOZHIKODE",
    "state": "",
    "pincode": "",
    "phone": "9447426030",
    "email": "bt@bristoltyres.co.in",
    "latitude": "11.205516",
    "longitude": "75.815859",
    "dealer_type": ""
  },
  {
    "name": "TYREBAY",
    "address": "NEAR HP PUMP,ELITEPADY,EMGANDI",
    "city": "THRISSUR",
    "state": "",
    "pincode": "",
    "phone": "9544308956",
    "email": "tyrebaytcr@gmail.com",
    "latitude": "10.497806",
    "longitude": "76.06464",
    "dealer_type": ""
  },
  {
    "name": "AYYAPPA'S  TYRES",
    "address": "Tokyo Market, Vadanappally P.O",
    "city": "Thrissur,",
    "state": "",
    "pincode": "",
    "phone": "4872605823",
    "email": "sweekar.enterprises@yahoo.com",
    "latitude": "10.46472",
    "longitude": "76.082944",
    "dealer_type": ""
  },
  {
    "name": "VADAKKEDATH AGENCIES",
    "address": "GROUND FLOOR, VI/409-B, PULLAR",
    "city": "ERNAKULAM",
    "state": "",
    "pincode": "",
    "phone": "9846631155",
    "email": "abhinandvv@gmail.com",
    "latitude": "10.216337",
    "longitude": "76.201846",
    "dealer_type": ""
  },
  {
    "name": "K.B.K . AGENCIES",
    "address": "PONNANI, MALAPURAM DIST",
    "city": "PONNANI",
    "state": "",
    "pincode": "",
    "phone": "4942684262",
    "email": "kbkagenciesedl@gmail.com",
    "latitude": "10.77992",
    "longitude": "75.94859",
    "dealer_type": ""
  },
  {
    "name": "PALS TYRE SERVICE CENTRE",
    "address": "ST.JOSEPH'S COLLEGE ROAD",
    "city": "Thrissur,",
    "state": "",
    "pincode": "",
    "phone": "9447164718",
    "email": "palskdlr@gmail.com",
    "latitude": "10.282109",
    "longitude": "76.213114",
    "dealer_type": ""
  },
  {
    "name": "ROAD RIDER AUTO SCANING CENTER",
    "address": "KUNNAMKULAM",
    "city": "Thrissur,",
    "state": "",
    "pincode": "",
    "phone": "9846802802",
    "email": "roadriderkkm@gmail.com",
    "latitude": "10.650015",
    "longitude": "76.066346",
    "dealer_type": ""
  },
  {
    "name": "S R TYRES",
    "address": "Building N0:7-200/2-1",
    "city": "PALAKKAD",
    "state": "",
    "pincode": "",
    "phone": "9787756076",
    "email": "kk4080463@gmail.com",
    "latitude": "10.4612",
    "longitude": "76.1648",
    "dealer_type": ""
  },
  {
    "name": "AUTO PLUS SERVICES",
    "address": "OPP: SN FUELS, VAZHIKULANGARA",
    "city": "Ernakulam",
    "state": "",
    "pincode": "",
    "phone": "9656869158",
    "email": "info@autoplusservices.com",
    "latitude": "10.123122",
    "longitude": "76.253922",
    "dealer_type": ""
  },
  {
    "name": "FRIENDS TYRES(E)",
    "address": "PATHOORAVALAPPIL,IV/365A,B",
    "city": "EDAPPAL",
    "state": "",
    "pincode": "",
    "phone": "9846791686",
    "email": "friendstyresedl@gmail.com",
    "latitude": "10.787405",
    "longitude": "75.976736",
    "dealer_type": ""
  },
  {
    "name": "FASTRACK",
    "address": "KANNAPURAM, CHETTUPUZHA P O",
    "city": "THRISSUR",
    "state": "",
    "pincode": "",
    "phone": "9539611600",
    "email": "fastracktcr@yahoo.com",
    "latitude": "10.502942",
    "longitude": "76.166014",
    "dealer_type": ""
  },
  {
    "name": "KPM STEELS AND TRADINGCO",
    "address": "PUDUKODE BUS STOP",
    "city": "Palakkad,",
    "state": "",
    "pincode": "",
    "phone": "9037682474",
    "email": "kpmsteels2013@gmail.com",
    "latitude": "10.505238",
    "longitude": "76.166669",
    "dealer_type": ""
  },
  {
    "name": "National Tyre Exhibition",
    "address": "3/7, National Tyre Exhibition",
    "city": "Thrissur",
    "state": "",
    "pincode": "",
    "phone": "9745148765",
    "email": "Nationaltyreexhibition@gmail.com",
    "latitude": "10.372098",
    "longitude": "76.223288",
    "dealer_type": ""
  },
  {
    "name": "WHEEL TRACKX",
    "address": "AYYAPPANKAVU,KOCHI",
    "city": "Ernakulam,",
    "state": "",
    "pincode": "",
    "phone": "9895031312",
    "email": "rakeshkleela8@gmail.com",
    "latitude": "9.997697",
    "longitude": "76.280047",
    "dealer_type": ""
  },
  {
    "name": "WINS AUTO SALES",
    "address": "MURYANKARA MILMA ROAD",
    "city": "ERNAKULAM",
    "state": "",
    "pincode": "",
    "phone": "9567258318",
    "email": "winsautoekm@gmail.com",
    "latitude": "10.001995",
    "longitude": "76.289776",
    "dealer_type": ""
  },
  {
    "name": "C. N. VAMANA PRABHU",
    "address": "BANERJI ROAD,KALOOR",
    "city": " Ernakulam",
    "state": "",
    "pincode": "",
    "phone": "7356314534",
    "email": "cnv16@yahoo.com",
    "latitude": "10.001995",
    "longitude": "76.289807",
    "dealer_type": ""
  },
  {
    "name": "LITTLE FLOWER TYRES & OILS",
    "address": "THOPPUMPADY",
    "city": "COCHIN",
    "state": "",
    "pincode": "",
    "phone": "9846055150",
    "email": "littleflowertyres@yahoo.co.in",
    "latitude": "9.957001",
    "longitude": "76.290559",
    "dealer_type": ""
  },
  {
    "name": "MILEAGE TYRES",
    "address": "CHERANALLUR PO, THAIKKAVU JN",
    "city": "ERNAKULAM, KERALA.",
    "state": "",
    "pincode": "",
    "phone": "9946522777",
    "email": "mileagetyreskochi@gmail.com",
    "latitude": "10.051706",
    "longitude": "76.293591",
    "dealer_type": ""
  },
  {
    "name": "PEACE TYRES",
    "address": "VATTAMKULAM,",
    "city": "KALADITHARA",
    "state": "",
    "pincode": "",
    "phone": "9544757147",
    "email": "peacetyres3d@gmail.com",
    "latitude": "10.812747",
    "longitude": "76.011582",
    "dealer_type": ""
  },
  {
    "name": "WHEEL TECH ALIGNMENT AND TYRES",
    "address": "KOTTATHARA COMPLEX,POOKKAYIL",
    "city": "TIRUR",
    "state": "",
    "pincode": "",
    "phone": "9895248444",
    "email": "wheeltechtirur@gmail.com",
    "latitude": "10.921347",
    "longitude": "75.915344",
    "dealer_type": ""
  },
  {
    "name": "RIVER SIDE TYRE",
    "address": "53/32, POONKUNNAM",
    "city": "Thrissur, Kerala, 680002",
    "state": "",
    "pincode": "",
    "phone": "9400983360",
    "email": "bhavith007@hotmail.com",
    "latitude": "10.540474",
    "longitude": "76.190549",
    "dealer_type": ""
  },
  {
    "name": "WIN S  TYRES",
    "address": "MAIN ROAD,KOORKKENCHERY",
    "city": "Thrissur, ",
    "state": "",
    "pincode": "",
    "phone": "9947240489",
    "email": "winstyrestcr@gmail.com",
    "latitude": "10.499415",
    "longitude": "76.212571",
    "dealer_type": ""
  },
  {
    "name": "AS WHEELS CARE BY CARS",
    "address": "MGP V/68E, MANNANCHERRY",
    "city": "ALAPUZHA",
    "state": "",
    "pincode": "",
    "phone": "9746285778",
    "email": "akbarsha14@gmail.com",
    "latitude": "10.00348",
    "longitude": "76.314337",
    "dealer_type": ""
  },
  {
    "name": "PRO TYRES",
    "address": "KOZHENCHERRY",
    "city": "Pathanamthitta, ",
    "state": "",
    "pincode": "",
    "phone": "8899998998",
    "email": "ljacob@protyres.in",
    "latitude": "10.00348",
    "longitude": "76.314337",
    "dealer_type": ""
  },
  {
    "name": "RIVER SIDE TYRE ALLOY WHEELS",
    "address": "GURUVAYOOR ROAD, PUZHAKKAL,",
    "city": " THRISSUR",
    "state": "",
    "pincode": "",
    "phone": "9400983360",
    "email": "bhavith007@hotmail.com",
    "latitude": "10.518454",
    "longitude": "76.206473",
    "dealer_type": ""
  },
  {
    "name": "M/S GLOBAL TYRES",
    "address": "MAMANGALAM",
    "city": "ERNAKULAM",
    "state": "",
    "pincode": "",
    "phone": "9447485664",
    "email": "globaltyres@hotmail.com",
    "latitude": "9.951831",
    "longitude": "76.316636",
    "dealer_type": ""
  },
  {
    "name": "BHARATH TYRES",
    "address": "T.E ROAD, KOKKALAI",
    "city": "THRISSUR",
    "state": "",
    "pincode": "",
    "phone": "9447832156",
    "email": "bharathtyres.trichur@gmail.com",
    "latitude": "10.511808",
    "longitude": "76.214114",
    "dealer_type": ""
  },
  {
    "name": "MASTER CARE",
    "address": ",",
    "city": "Ernakulam, ",
    "state": "",
    "pincode": "",
    "phone": "9961343568",
    "email": "mastercaremuppathadom@yahoo.com",
    "latitude": "10.079788",
    "longitude": "76.318318",
    "dealer_type": ""
  },
  {
    "name": "G S TYRES",
    "address": "17/643, PONNANI ROAD",
    "city": "PADINARANGADI, PALAKKAD,",
    "state": "",
    "pincode": "",
    "phone": "9846180011",
    "email": "gstyres333@gmail.com",
    "latitude": "10.786935",
    "longitude": "76.063977",
    "dealer_type": ""
  },
  {
    "name": "SPB ENTERPRISES",
    "address": "AMBALAPARA ROAD, PALACHUVADU",
    "city": "ERNAKULAM",
    "state": "",
    "pincode": "",
    "phone": "7012991548",
    "email": "spbcochin@gmail.com",
    "latitude": "9.998265",
    "longitude": "76.334473",
    "dealer_type": ""
  },
  {
    "name": "COCHIN TYRES",
    "address": "Sea port Airport Road,Thrikkak",
    "city": "Ernakulam,",
    "state": "",
    "pincode": "",
    "phone": "4842350051",
    "email": "cochintyres000@gmail.com",
    "latitude": "10.029976",
    "longitude": "76.336011",
    "dealer_type": ""
  },
  {
    "name": "GREENLAND TYRES",
    "address": "VADAKKUM PARAMBIL COMPLEX",
    "city": "Thrissur,",
    "state": "",
    "pincode": "",
    "phone": "9447442024",
    "email": "darlymathew328@gmail.com",
    "latitude": "10.442473",
    "longitude": "76.260109",
    "dealer_type": ""
  },
  {
    "name": "NEW BHARATH  TYRES  INDIA  PVT",
    "address": "NH-47, BY PASS ROAD, PUTHIYA R",
    "city": "ERNAKULAM",
    "state": "",
    "pincode": "",
    "phone": "9847045399",
    "email": "newbharathtyres@yahoo.com",
    "latitude": "10.059616",
    "longitude": "76.345313",
    "dealer_type": ""
  },
  {
    "name": "MILESTONE TYRE WORLD",
    "address": "KAROTHUKUZHI BUILDING,MUTTOM",
    "city": "ALUVA, ERNAKULAM.",
    "state": "",
    "pincode": "",
    "phone": "9847423323",
    "email": "milestonetyreworld.muttom@gmail.com",
    "latitude": "10.089235",
    "longitude": "76.343826",
    "dealer_type": ""
  },
  {
    "name": "DENNY TRADERS",
    "address": "PALLIKKARA, KUMARAPURAM P.O.,",
    "city": "Ernakulam,",
    "state": "",
    "pincode": "",
    "phone": "4842680806",
    "email": "augusthyva@yahoo.in",
    "latitude": "10.054623",
    "longitude": "76.346388",
    "dealer_type": ""
  },
  {
    "name": "PALA TYRES",
    "address": "26/232(1), 232(2), 233(3),",
    "city": "Kottayam,",
    "state": "",
    "pincode": "",
    "phone": "9447868589",
    "email": "Palatyres@gmail.com",
    "latitude": "10.055368",
    "longitude": "76.346673",
    "dealer_type": ""
  },
  {
    "name": "ROYAL TYRES",
    "address": "Sawmill Jn, Pala road, Pallick",
    "city": "Kottayam, ",
    "state": "",
    "pincode": "",
    "phone": "9446921935",
    "email": "alphajosep@gmail.com",
    "latitude": "10.055368",
    "longitude": "76.346673",
    "dealer_type": ""
  },
  {
    "name": "WHEEL CARE, MUNDAKAYAM",
    "address": "NEAR POLICE STATION",
    "city": "Kottayam",
    "state": "",
    "pincode": "",
    "phone": "4828273280",
    "email": "casey_tm@yahoo.com",
    "latitude": "10.055368",
    "longitude": "76.346673",
    "dealer_type": ""
  },
  {
    "name": "WHEEL CARE, KURAVILANGAD",
    "address": "KOZHA P.O.,  KURAVILANGAD",
    "city": "Kottayam,",
    "state": "",
    "pincode": "",
    "phone": "4822230659",
    "email": "rejipjohn123@gmail.com",
    "latitude": "10.055368",
    "longitude": "76.346673",
    "dealer_type": ""
  },
  {
    "name": "IDEAL TYRES",
    "address": "KOLENGADAN BUILDING, NEAR SITA",
    "city": "THRISSUR",
    "state": "",
    "pincode": "",
    "phone": "9895350862",
    "email": "idealtyrestcr@gmail.com",
    "latitude": "10.055431",
    "longitude": "76.346687",
    "dealer_type": ""
  },
  {
    "name": "AUTO CARE TYRES AND WHEEL ALIE",
    "address": "ANJUMOORTHY P.O, MANGALAMPALAM",
    "city": "PALAKKAD",
    "state": "",
    "pincode": "",
    "phone": "9946925500",
    "email": "autocare6789@gmail.com",
    "latitude": "10.055273",
    "longitude": "76.3467",
    "dealer_type": ""
  },
  {
    "name": "CHIRAYIL TYRES",
    "address": "PAMBADY",
    "city": " KOTTAYAM",
    "state": "",
    "pincode": "",
    "phone": "4812509211",
    "email": "chirayiltyres@gmail.com",
    "latitude": "10.055296",
    "longitude": "76.346716",
    "dealer_type": ""
  },
  {
    "name": "THE TYRE GUYS",
    "address": "38/3030 A, NEAR MYLATH TEMPLE",
    "city": "ERNAKULAM",
    "state": "",
    "pincode": "",
    "phone": "9446036024",
    "email": "gopantyres@gmail.com",
    "latitude": "10.05513",
    "longitude": "76.346729",
    "dealer_type": ""
  },
  {
    "name": "LAKSHMI NARASIMHA TYRES",
    "address": "NEAR GANDHI BAZAR",
    "city": "Alappuzha, ",
    "state": "",
    "pincode": "",
    "phone": "4782813054",
    "email": "cssachi86@gmail.com",
    "latitude": "10.055141",
    "longitude": "76.34673",
    "dealer_type": ""
  },
  {
    "name": "CARTONIX TYRES",
    "address": "S N Building, College Road",
    "city": "Ernakulam,Â ",
    "state": "",
    "pincode": "",
    "phone": "9961715432",
    "email": "cartonixtyres@gmail.com",
    "latitude": "10.055232",
    "longitude": "76.346745",
    "dealer_type": ""
  },
  {
    "name": "SPEED TYRE SHOPPE",
    "address": "CIVIL LINE ROAD",
    "city": "Ernakulam,",
    "state": "",
    "pincode": "",
    "phone": "9995980494",
    "email": "stspadivattom@gmail.com",
    "latitude": "10.054765",
    "longitude": "76.346767",
    "dealer_type": ""
  },
  {
    "name": "KIZHAKKEPEDEYAKKAL TYRES",
    "address": "PATHIRIPALA",
    "city": "PALAKKAD",
    "state": "",
    "pincode": "",
    "phone": "9633893162",
    "email": "kizhakkepeediyakkaltyres@gmail.com",
    "latitude": "10.055298",
    "longitude": "76.346796",
    "dealer_type": ""
  },
  {
    "name": "ALLEPPEY PAVALAM TYRES & MILL",
    "address": "WEST OF IRON BRIDGE,",
    "city": "Alappuzha",
    "state": "",
    "pincode": "",
    "phone": "4772244612",
    "email": "pavalamtyres@gmail.com",
    "latitude": "10.055193",
    "longitude": "76.346801",
    "dealer_type": ""
  },
  {
    "name": "K.M.H.TRADERS",
    "address": "6/48A",
    "city": "ALAPPUZHA",
    "state": "",
    "pincode": "",
    "phone": "9847171404",
    "email": "kmhtraders123@gmail.com",
    "latitude": "10.055193",
    "longitude": "76.346801",
    "dealer_type": ""
  },
  {
    "name": "HOT WHEELS , OTTAPPALAM",
    "address": "MANISSERY, OTTAPPALAM",
    "city": "Palakkad,",
    "state": "",
    "pincode": "",
    "phone": "4662010763",
    "email": "maheshkanoor@gmail.com",
    "latitude": "10.055099",
    "longitude": "76.346808",
    "dealer_type": ""
  },
  {
    "name": "UNIVERSAL TYRES",
    "address": "OPP.SITARAM MOTORS,NHBYEPASS ,",
    "city": "PALAKKAD",
    "state": "",
    "pincode": "",
    "phone": "9895941891",
    "email": "universaltyrespkd11@gmail.com",
    "latitude": "10.055099",
    "longitude": "76.346808",
    "dealer_type": ""
  },
  {
    "name": "FLYWHEELS",
    "address": "KADAPLACKAL BUILDING,ERATTUPET",
    "city": "Kottayam, ,",
    "state": "",
    "pincode": "",
    "phone": "9846624727",
    "email": "flywheelsnajeeb@gmail.com",
    "latitude": "10.055273",
    "longitude": "76.346806",
    "dealer_type": ""
  },
  {
    "name": "KANNAN TYRES",
    "address": "OPP MARUTHARODE VILLAGE OFFICE",
    "city": "PALAKKAD",
    "state": "",
    "pincode": "",
    "phone": "9447281208",
    "email": "shailar78910@gmail.com",
    "latitude": "10.055131",
    "longitude": "76.34682",
    "dealer_type": ""
  },
  {
    "name": "CORMAC TYRE CARE",
    "address": "KARODAN CENTRE,THIRUVANKULAM P",
    "city": "Ernakulam,",
    "state": "",
    "pincode": "",
    "phone": "9400931707",
    "email": "cormacwheelcare@gmail.com",
    "latitude": "10.055228",
    "longitude": "76.346828",
    "dealer_type": ""
  },
  {
    "name": "MARIYA TYRES",
    "address": "ALATHUR ROAD, PAZHAYANNUR",
    "city": "Thrissur,",
    "state": "",
    "pincode": "",
    "phone": "9446581241",
    "email": "mariyatyrespzr@gmail.com",
    "latitude": "10.055115",
    "longitude": "76.346861",
    "dealer_type": ""
  },
  {
    "name": "E.J. GEORGE & COMPANY",
    "address": "NEAR MARTHOMA CHURCH",
    "city": "Ernakulam",
    "state": "",
    "pincode": "",
    "phone": "9446048207",
    "email": "info.stanly@gmail.com",
    "latitude": "10.055152",
    "longitude": "76.34686",
    "dealer_type": ""
  },
  {
    "name": "BENZ TYRES",
    "address": "REFINERY ROAD",
    "city": "Ernakulam",
    "state": "",
    "pincode": "",
    "phone": "9744218980",
    "email": "benztyresz4@gmail.com",
    "latitude": "10.055083",
    "longitude": "76.346882",
    "dealer_type": ""
  },
  {
    "name": "TYRE INDIA",
    "address": "M C ROAD,PERUNNA",
    "city": "THIRUVALLA",
    "state": "",
    "pincode": "",
    "phone": "9847033748",
    "email": "tyreindia@yahoo.com",
    "latitude": "10.055142",
    "longitude": "76.346895",
    "dealer_type": ""
  },
  {
    "name": "NEW THOMSON TYRES",
    "address": "X - 409 - 313, PARISH HALL BUI",
    "city": "KOTTAYAM",
    "state": "",
    "pincode": "",
    "phone": "9447145777",
    "email": "sajithomas822@gmail.com",
    "latitude": "10.055084",
    "longitude": "76.346899",
    "dealer_type": ""
  },
  {
    "name": "M.G.M AGENCIES",
    "address": "493,494,495, M.C ROAD",
    "city": "CHENGANNUR, ALAPPUZHA",
    "state": "",
    "pincode": "",
    "phone": "9446405570",
    "email": "abeyjoseph72@gmail.com",
    "latitude": "10.055077",
    "longitude": "76.3469",
    "dealer_type": ""
  },
  {
    "name": "AMRITAPURI AGENCIES",
    "address": "37-3641/A2, Revathi",
    "city": "Ernakulam",
    "state": "",
    "pincode": "",
    "phone": "9388831297",
    "email": "amrithapuri.prabha@gmail.com",
    "latitude": "10.055047",
    "longitude": "76.346909",
    "dealer_type": ""
  },
  {
    "name": "C P TYRES",
    "address": "Near KMEA COLLEGE,C P COMPLEX,",
    "city": "Alappuzha, ",
    "state": "",
    "pincode": "",
    "phone": "9995887005",
    "email": "cptyres@gmail.com",
    "latitude": "10.055047",
    "longitude": "76.346909",
    "dealer_type": ""
  },
  {
    "name": "THOHOOR TYRES & OILS",
    "address": "PURETHEZHATH BUILDING",
    "city": "Â Alappuzha",
    "state": "",
    "pincode": "",
    "phone": "9447487815",
    "email": "thohoor@gmail.com",
    "latitude": "10.055111",
    "longitude": "76.346914",
    "dealer_type": ""
  },
  {
    "name": "MATHA MILL STORES",
    "address": "MANMANGALAM,",
    "city": "ERNAKULAM",
    "state": "",
    "pincode": "",
    "phone": "9447023398",
    "email": "mathamillstores@gmail.com",
    "latitude": "10.055026",
    "longitude": "76.346944",
    "dealer_type": ""
  },
  {
    "name": "COUSINS AGENCIES",
    "address": "STAR JUN.,ADAM TOWER,KOTTAYAM",
    "city": "Kottayam",
    "state": "",
    "pincode": "",
    "phone": "4812304083",
    "email": "cousins.agencies@gmail.com",
    "latitude": "10.054999",
    "longitude": "76.346954",
    "dealer_type": ""
  },
  {
    "name": "C M KURIAN & COMPANY,",
    "address": "CHALAKUZHY BHAVAN,M C ROAD",
    "city": "KOTTAYAM",
    "state": "",
    "pincode": "",
    "phone": "9447355765",
    "email": "cmklino@gmail.com",
    "latitude": "10.054999",
    "longitude": "76.346954",
    "dealer_type": ""
  },
  {
    "name": "ALPHA TYRES",
    "address": "Alpha Building",
    "city": "Kottayam, , ",
    "state": "",
    "pincode": "",
    "phone": "4812431047",
    "email": "alphatyres45@gmail.com",
    "latitude": "10.063685",
    "longitude": "76.349799",
    "dealer_type": ""
  },
  {
    "name": "PEE PEE TRADERS",
    "address": "ERNAKULAM ROAD",
    "city": "ALUVA  KERALA.",
    "state": "",
    "pincode": "",
    "phone": "9349918322",
    "email": "pp.tradersaluva@yahoo.com",
    "latitude": "10.103012",
    "longitude": "76.350268",
    "dealer_type": ""
  },
  {
    "name": "RODO TYRES",
    "address": "PAZHOOR, PIRAVOM,NEAR BPCL PUM",
    "city": "KOCHI, KERALA",
    "state": "",
    "pincode": "",
    "phone": "9747691237",
    "email": "rodotyres@gmail.com",
    "latitude": "9.697857",
    "longitude": "76.321575",
    "dealer_type": ""
  },
  {
    "name": "GRIPLINE TYRES",
    "address": "Building No./Flat No.:303",
    "city": "Ernakulam",
    "state": "",
    "pincode": "",
    "phone": "7356600819",
    "email": "Zonekm@gripline.in",
    "latitude": "9.95947",
    "longitude": "76.358001",
    "dealer_type": ""
  },
  {
    "name": "HIGHWAY TYRE POINT",
    "address": "Ground Floor,6/562",
    "city": "Thrissur",
    "state": "",
    "pincode": "",
    "phone": "6364833131",
    "email": "highwaytyrepoint@gmail.com",
    "latitude": "10.526242",
    "longitude": "76.258835",
    "dealer_type": ""
  },
  {
    "name": "N E S TRADERS",
    "address": "Near KMEA Engineering,Kuzhivel",
    "city": "ERNAKULAM",
    "state": "",
    "pincode": "",
    "phone": "9605850007",
    "email": "jemsheer555@gmail.com",
    "latitude": "10.048171",
    "longitude": "76.379102",
    "dealer_type": ""
  },
  {
    "name": "ROYAL TYRES",
    "address": "GROUND FLOOR,",
    "city": "PAMPAKUDA, ERNAKULAM",
    "state": "",
    "pincode": "",
    "phone": "9605538499",
    "email": "shinumathai48@gmail.com",
    "latitude": "9.991634",
    "longitude": "76.39789",
    "dealer_type": ""
  },
  {
    "name": "NEW INDIA TYRES",
    "address": "CEE CEE TOWERS OPP.MOSQUE",
    "city": "ANGAMALY",
    "state": "",
    "pincode": "",
    "phone": "9447328384",
    "email": "newindiatyres635@gmail.com",
    "latitude": "10.200376",
    "longitude": "76.38382",
    "dealer_type": ""
  },
  {
    "name": "V.K TYRES",
    "address": "OPP KRISHIBHAVAN",
    "city": "MALAPURAM",
    "state": "",
    "pincode": "",
    "phone": "9526007800",
    "email": "vktvlyapollo@gmail.com",
    "latitude": "10.897279",
    "longitude": "76.076185",
    "dealer_type": ""
  },
  {
    "name": "UNITED TYRES",
    "address": "VI/412,412A,412B, CHANGUVETTY",
    "city": "KOTTAKKAL",
    "state": "",
    "pincode": "",
    "phone": "9847136524",
    "email": "unitedtyreskkl@gmail.com",
    "latitude": "10.990245",
    "longitude": "75.993134",
    "dealer_type": ""
  },
  {
    "name": "OMEGA TRADING COMPANY",
    "address": "25/1502 B, MARAR ROAD",
    "city": "THRISSUR, KERALA",
    "state": "",
    "pincode": "",
    "phone": "9847014466",
    "email": "omegatcr@gmail.com",
    "latitude": "10.184081",
    "longitude": "76.405012",
    "dealer_type": ""
  },
  {
    "name": "ARABIAN TYRES,",
    "address": "10/106, C M TOWER,",
    "city": "Thrissur,",
    "state": "",
    "pincode": "",
    "phone": "9388995593",
    "email": "arabiantyres@gmail.com",
    "latitude": "10.666308",
    "longitude": "76.248432",
    "dealer_type": ""
  },
  {
    "name": "METRO SCAN AND TYRES",
    "address": "VAZHOOR ROAD,",
    "city": "Kottayam",
    "state": "",
    "pincode": "",
    "phone": "9847962506",
    "email": "lakshmimetro@gmail.com",
    "latitude": "9.670359",
    "longitude": "76.381721",
    "dealer_type": ""
  },
  {
    "name": "MAMBLA TYRES",
    "address": "17/330A,KANNARA",
    "city": "THRISSUR",
    "state": "",
    "pincode": "",
    "phone": "8086996361",
    "email": "mamblatyres@gmail.com",
    "latitude": "10.53449",
    "longitude": "76.327738",
    "dealer_type": ""
  },
  {
    "name": "TYRE WORLD",
    "address": "NEAR LP SCHOOL, Sankaramangala",
    "city": "Palakkad,",
    "state": "",
    "pincode": "",
    "phone": "9745220333",
    "email": "tyreworldptb@gmail.com",
    "latitude": "10.807277",
    "longitude": "76.199128",
    "dealer_type": ""
  },
  {
    "name": "ARUN TYRES",
    "address": "EDAYAZHAM JUNCTION",
    "city": "Kottayam",
    "state": "",
    "pincode": "",
    "phone": "9446043212",
    "email": "arun.tyres24@gmail.com",
    "latitude": "9.685532",
    "longitude": "76.420254",
    "dealer_type": ""
  },
  {
    "name": "SAMY AUTO PARTS",
    "address": "DSP NAGAR 5TH STREET,  STATE B",
    "city": "MADURAI",
    "state": "",
    "pincode": "",
    "phone": "9486729368",
    "email": "samyautopart@gmail.com",
    "latitude": "9.91772",
    "longitude": "78.094782",
    "dealer_type": ""
  },
  {
    "name": "NILAN TYRES",
    "address": "VOC ROAD",
    "city": "SIVAGANGA",
    "state": "",
    "pincode": "",
    "phone": "9025151438",
    "email": "KULANTHAIVELNATARAJAN@GMAIL.COM",
    "latitude": "10.076039",
    "longitude": "78.764051",
    "dealer_type": ""
  },
  {
    "name": "JS TYRES",
    "address": "THERKKU THOPPU STREET",
    "city": "RAMANATHAPURAM",
    "state": "",
    "pincode": "",
    "phone": "8838905531",
    "email": "jstyres22@gmail.com",
    "latitude": "9.739094",
    "longitude": "79.012012",
    "dealer_type": ""
  },
  {
    "name": "SRI BHAGAVATHI AMMAN TYRES",
    "address": "553/4",
    "city": "THANJAVUR",
    "state": "",
    "pincode": "",
    "phone": "9443448673",
    "email": "nanthavann@gmail.com",
    "latitude": "10.290914",
    "longitude": "79.191234",
    "dealer_type": ""
  },
  {
    "name": "ANNAI TYRES AND CONTRACTOR",
    "address": "4811,Melaratha Veethi-ALARN Cm",
    "city": "kalayarkovil",
    "state": "",
    "pincode": "",
    "phone": "9443860273",
    "email": "annaipragash2223@gmail.com",
    "latitude": "9.851271",
    "longitude": "78.647689",
    "dealer_type": ""
  },
  {
    "name": "BOWSIYA STORE",
    "address": "53 D.D.MAIN ROAD",
    "city": "R.S.MANGALAM",
    "state": "",
    "pincode": "",
    "phone": "9655656876",
    "email": "BARAKKATH67BARAKKATHALI@GMAIL.COM",
    "latitude": "9.636537",
    "longitude": "78.848337",
    "dealer_type": ""
  },
  {
    "name": "DEVAN AGENCIES",
    "address": " 2 ND STREET,PUDUKKOTTAI",
    "city": "PUDUKKOTTAI",
    "state": "",
    "pincode": "",
    "phone": "04322-227535",
    "email": "devantyreworld@gmail.com",
    "latitude": "10.379285",
    "longitude": "78.821144",
    "dealer_type": ""
  },
  {
    "name": "SRI TYRES",
    "address": "PANNAVAYAL,MAH COMPLEX",
    "city": "PATTUKOTTAI",
    "state": "",
    "pincode": "",
    "phone": "9262082458",
    "email": "pattukkottaisrityre@gmail.com",
    "latitude": "10.424147",
    "longitude": "79.307403",
    "dealer_type": ""
  },
  {
    "name": "AMUDAN TYRES",
    "address": "RADHA KRISHNAN STREET",
    "city": "SIVAGANGA",
    "state": "",
    "pincode": "",
    "phone": "8610757647",
    "email": "sivachezhian74@gmail.com",
    "latitude": "9.853663",
    "longitude": "78.484225",
    "dealer_type": ""
  },
  {
    "name": "SRI RAJESWARI TRADERS",
    "address": "Kayambu Ammal Complex",
    "city": "Sivagangai",
    "state": "",
    "pincode": "",
    "phone": "9715157707",
    "email": "TMURUGAN65@GMAIL.COM",
    "latitude": "9.847644",
    "longitude": "78.482412",
    "dealer_type": ""
  },
  {
    "name": "VELAN AGENCIES",
    "address": "MADURAI TRICHY MAIN ROAD",
    "city": "MELUR",
    "state": "",
    "pincode": "",
    "phone": "8012074902",
    "email": "VELANTYRES22@GMAIL.COM",
    "latitude": "10.02203",
    "longitude": "78.351972",
    "dealer_type": ""
  },
  {
    "name": "SNM TYRES",
    "address": "SIKIL RAJA VEETHI",
    "city": "RAMANATHAPURAM",
    "state": "",
    "pincode": "",
    "phone": "7010298851",
    "email": "snmtyres@GMAIL.COM",
    "latitude": "9.368362",
    "longitude": "78.836607",
    "dealer_type": ""
  },
  {
    "name": "TMS & CO",
    "address": "ATHAMANASAMY NAGAR",
    "city": "RAMANATHAPURAM",
    "state": "",
    "pincode": "",
    "phone": "9443080846",
    "email": "tmscotyres@gmail.com",
    "latitude": "9.35439",
    "longitude": "78.872454",
    "dealer_type": ""
  },
  {
    "name": "DHINAA'S",
    "address": "NO. A11, ANNA NAGAR,",
    "city": "TENNUR, TIRUCHIRAPPALLI",
    "state": "",
    "pincode": "",
    "phone": "4314200484",
    "email": "mr.vallu@gmail.com",
    "latitude": "10.755797",
    "longitude": "79.117957",
    "dealer_type": ""
  },
  {
    "name": "M V K ENTERPRISES",
    "address": "DMC ROAD, THIRUTHURAIPOONDI",
    "city": "THIRUTHURAIPOONDI",
    "state": "",
    "pincode": "",
    "phone": "4369223005",
    "email": "mvkenterprises@gmail.com",
    "latitude": "10.774884",
    "longitude": "79.136179",
    "dealer_type": ""
  },
  {
    "name": "AL-HAJEE TYRES",
    "address": "70, 3, 4",
    "city": "THANJAVUR",
    "state": "",
    "pincode": "",
    "phone": "9443375417",
    "email": "alhajeetyres@gmail.com",
    "latitude": "10.77549",
    "longitude": "79.137916",
    "dealer_type": ""
  },
  {
    "name": "SPIRIT MOTORS",
    "address": "MELUR MAIN ROAD, UTHANGUDI",
    "city": "MADURAI",
    "state": "",
    "pincode": "",
    "phone": "9629611317",
    "email": "spiritmotors.madurai@gmail.com",
    "latitude": "9.950983",
    "longitude": "78.167528",
    "dealer_type": ""
  },
  {
    "name": "XL TYRE POINT",
    "address": "1/A,AYYANAR NAGAR",
    "city": "MADURAI-625020",
    "state": "",
    "pincode": "",
    "phone": "9965569655",
    "email": "xltyrepointmadurai@yahoo.com",
    "latitude": "9.929623",
    "longitude": "78.166963",
    "dealer_type": ""
  },
  {
    "name": "SK WHEELS",
    "address": "A21/1 MIG BLOCK ANNA NAGAR",
    "city": "MADURAI",
    "state": "",
    "pincode": "",
    "phone": "8056580545",
    "email": "skwheels.ar@gmail.com",
    "latitude": "9.901103",
    "longitude": "78.163541",
    "dealer_type": ""
  },
  {
    "name": "SRI NALLANDAVAR TYRES",
    "address": "2n veerachi south street bye p",
    "city": "MANAPARAI",
    "state": "",
    "pincode": "",
    "phone": "9443815952",
    "email": "srinallandavartyresmnp@gmail.com",
    "latitude": "10.607158",
    "longitude": "78.421444",
    "dealer_type": ""
  },
  {
    "name": "Siva Siva Traders",
    "address": "5/776, 777, Melur Road",
    "city": "Sivagangai",
    "state": "",
    "pincode": "",
    "phone": "9842026888",
    "email": "sivasivatraders@gmail.com",
    "latitude": "9.942017",
    "longitude": "78.150207",
    "dealer_type": ""
  },
  {
    "name": "VELUMANICKAM TRADERS",
    "address": "78/11SWAMY VIVEKANANDAR",
    "city": "RAMANATHAPURAM",
    "state": "",
    "pincode": "",
    "phone": "9965520513",
    "email": "velumanickam1979@gmail.com",
    "latitude": "9.942017",
    "longitude": "78.150207",
    "dealer_type": ""
  },
  {
    "name": "AMARNATH TYRES",
    "address": "46/1 AND 46C,NEW RAMANAD ROAD,",
    "city": "MADURAI",
    "state": "",
    "pincode": "",
    "phone": "9943970722",
    "email": "amarnathtyres@gmail.com",
    "latitude": "9.909866",
    "longitude": "78.145071",
    "dealer_type": ""
  },
  {
    "name": "PERIYANDAVAR ENTERPRISES (P) L",
    "address": "10,NEW PANKAJAM COLONY, 3RD ST",
    "city": "MADURAI",
    "state": "",
    "pincode": "",
    "phone": "9629696045",
    "email": "periyandavarent@gmail.com",
    "latitude": "9.915753",
    "longitude": "78.14286",
    "dealer_type": ""
  },
  {
    "name": "S.B.TYRES",
    "address": "7 A/4 MANNAPARAI ROAD EAST",
    "city": "KULITHALAI",
    "state": "",
    "pincode": "",
    "phone": "9488083348",
    "email": "sbtyresklt@gmail.com",
    "latitude": "10.800002",
    "longitude": "78.706972",
    "dealer_type": ""
  },
  {
    "name": "Sri Hari Tyres",
    "address": "176",
    "city": "Kumbakonam",
    "state": "",
    "pincode": "",
    "phone": "9629190383",
    "email": "kumar.psrc@gmail.com",
    "latitude": "10.799999",
    "longitude": "78.706963",
    "dealer_type": ""
  },
  {
    "name": "SIVAAS WHEEL CARE",
    "address": "104/B1 BYE PASS ROAD",
    "city": "MANAPPARAI",
    "state": "",
    "pincode": "",
    "phone": "8940686800",
    "email": "sivaswheelcare@gmail.com",
    "latitude": "10.800003",
    "longitude": "78.706971",
    "dealer_type": ""
  },
  {
    "name": "M.N.A TYRES & AUTOMOBILES",
    "address": "94-A, RAJA COLONY,",
    "city": "TIRUCHIRAPPALLI",
    "state": "",
    "pincode": "",
    "phone": "9500764397",
    "email": "mnatyre@gmail.com",
    "latitude": "10.800035",
    "longitude": "78.706877",
    "dealer_type": ""
  },
  {
    "name": "MRS TYRES",
    "address": "2/365,, , Kallalangudi,, Alang",
    "city": "Pudukkottai,",
    "state": "",
    "pincode": "",
    "phone": "9942912374",
    "email": "mrstyres@yahoo.com",
    "latitude": "10.800074",
    "longitude": "78.706825",
    "dealer_type": ""
  },
  {
    "name": "CHANDRA WHEEL ALIGNMENT",
    "address": "SALEM MAIN ROAD, BALASAMURAM",
    "city": "THOTTIYAM, Tiruchurapalli",
    "state": "",
    "pincode": "",
    "phone": "9500418053",
    "email": "chandrawheels@gmail.com",
    "latitude": "10.800074",
    "longitude": "78.706825",
    "dealer_type": ""
  },
  {
    "name": "S.S. TRADE",
    "address": "114 Vakil New Street",
    "city": "MADURAI",
    "state": "",
    "pincode": "",
    "phone": "9894621915",
    "email": "yessuresh@rediffmail.com",
    "latitude": "9.92012",
    "longitude": "78.140165",
    "dealer_type": ""
  },
  {
    "name": "SRI JAYAVILAS INDUSTRIAL SERVI",
    "address": "BYPASS ROAD, AVANIYAPURAM",
    "city": "MADURAI",
    "state": "",
    "pincode": "",
    "phone": "7402742620",
    "email": "srijayavilas.indservices@gmail.com",
    "latitude": "9.909037",
    "longitude": "78.139161",
    "dealer_type": ""
  },
  {
    "name": "BANSAL TYRES",
    "address": "Ambala Road",
    "city": "PEHOWA",
    "state": "",
    "pincode": "",
    "phone": "9896195518",
    "email": "rakeshbansal12@gmail.com",
    "latitude": "10.800259",
    "longitude": "78.688447",
    "dealer_type": ""
  },
  {
    "name": "SRI RAGAS TRADERS",
    "address": "Chairman Muthuramaiyar Road",
    "city": "madurai",
    "state": "",
    "pincode": "",
    "phone": "8870056525",
    "email": "psrrakesh@gmail.com",
    "latitude": "9.912245",
    "longitude": "78.133843",
    "dealer_type": ""
  },
  {
    "name": "E R S TYRES",
    "address": "E B ROAD trichy - 62008",
    "city": "TIRUCHIRAPPALLI",
    "state": "",
    "pincode": "",
    "phone": "9443124459",
    "email": "erstyrestrichy@gmail.com",
    "latitude": "10.803748",
    "longitude": "78.691281",
    "dealer_type": ""
  },
  {
    "name": "SRI SAKTHI TYRE RETREADING COM",
    "address": "NO 68,",
    "city": "GREEN PARK ROAD EAST, TRI",
    "state": "",
    "pincode": "",
    "phone": "9843364444",
    "email": "srisakthyrecompany@gmail.com",
    "latitude": "10.803748",
    "longitude": "78.691281",
    "dealer_type": ""
  },
  {
    "name": "KAY JAY AUTO UNITS",
    "address": "No 1, Prominade road",
    "city": "Tiruchirappalli",
    "state": "",
    "pincode": "",
    "phone": "9600979766",
    "email": "ponnk_raajasekar@yahoo.com",
    "latitude": "10.803495",
    "longitude": "78.687811",
    "dealer_type": ""
  },
  {
    "name": "M.A TYRE CORPORATION",
    "address": "49-A, A Block, Ground Floor,",
    "city": "Tiruchirappalli",
    "state": "",
    "pincode": "",
    "phone": "9443140330",
    "email": "matyrecorporation@gmail.com",
    "latitude": "10.804015",
    "longitude": "78.68788",
    "dealer_type": ""
  },
  {
    "name": "DJ ALAGENDRAN AUTOMOBILES PVT",
    "address": "NO-34,PROMENADE ROAD,",
    "city": "TIRUCHIRAPPALLI,",
    "state": "",
    "pincode": "",
    "phone": "9940748885",
    "email": "djautomobiles123@gmail.com",
    "latitude": "10.804015",
    "longitude": "78.68788",
    "dealer_type": ""
  },
  {
    "name": "ASIAN TYRE AND TUBES",
    "address": "55-9, Basement, Jamaludeen Mak",
    "city": "TIRUCHIRAPPALLI",
    "state": "",
    "pincode": "",
    "phone": "0431-2708823",
    "email": "asiantyres@ymail.com",
    "latitude": "10.813453",
    "longitude": "78.707356",
    "dealer_type": ""
  },
  {
    "name": "A R AGENCIES",
    "address": "thambu building,tanjore road",
    "city": "TIRUCHIRAPPALLI",
    "state": "",
    "pincode": "",
    "phone": "9688888048",
    "email": "ajmeera191@gmail.com",
    "latitude": "10.813473",
    "longitude": "78.70466",
    "dealer_type": ""
  },
  {
    "name": "Dhinaa's Car Spa",
    "address": "Tanjore Main Road",
    "city": "TIRUCHIRAPPALLI",
    "state": "",
    "pincode": "",
    "phone": "9626400785",
    "email": "dhinaascarspa@gmail.com",
    "latitude": "10.817497",
    "longitude": "78.712459",
    "dealer_type": ""
  },
  {
    "name": "R K WHEEL CARE",
    "address": "SF NO 437/14",
    "city": "Tiruchirappalli",
    "state": "",
    "pincode": "",
    "phone": "9442101404",
    "email": "rkwheelcare@gmail.com",
    "latitude": "10.808179",
    "longitude": "78.682038",
    "dealer_type": ""
  },
  {
    "name": "MANICKAM COMPANY (FIRM)",
    "address": "156, northveli Street",
    "city": "Madurai",
    "state": "",
    "pincode": "",
    "phone": "9442621243",
    "email": "headoffice@manickamcompany.com",
    "latitude": "9.925096",
    "longitude": "78.118954",
    "dealer_type": ""
  },
  {
    "name": "TYRE PALACE,",
    "address": "SCO NO.66",
    "city": "BHIWANI",
    "state": "",
    "pincode": "",
    "phone": "9416059198",
    "email": "tyrepalacebhiwani@gmail.com",
    "latitude": "9.924652",
    "longitude": "78.118887",
    "dealer_type": ""
  },
  {
    "name": "AUTO TYRES",
    "address": "174, NORTH VELI STREET",
    "city": "MADURAI",
    "state": "",
    "pincode": "",
    "phone": "9952146142",
    "email": "autotyresmdu@gmail.com",
    "latitude": "9.924775",
    "longitude": "78.11778",
    "dealer_type": ""
  },
  {
    "name": "SSB TYRES",
    "address": "407, ARUPPUKOTTAI MAIN ROAD",
    "city": "MADURAI",
    "state": "",
    "pincode": "",
    "phone": "9943335990",
    "email": "TYRES.SSB@GMAIL.COM",
    "latitude": "9.898083",
    "longitude": "78.119175",
    "dealer_type": ""
  },
  {
    "name": "PANDIAN TWO WHEELERS",
    "address": "NORTH VELI STREET",
    "city": "MADURAI",
    "state": "",
    "pincode": "",
    "phone": "9344150928",
    "email": "pandiantwowheeler@yahoo.co.in",
    "latitude": "9.924327",
    "longitude": "78.11575",
    "dealer_type": ""
  },
  {
    "name": "M.R. MARKETTING",
    "address": "75 E/1, THIRD FLOOR, RTS COMPL",
    "city": "TIRUCHIRAPPALLI",
    "state": "",
    "pincode": "",
    "phone": "9944159998",
    "email": "rtstrichyy@gmail.com",
    "latitude": "10.831019",
    "longitude": "78.710699",
    "dealer_type": ""
  },
  {
    "name": "SAMY AUTO CENTRE",
    "address": "83, T.P.K.ROAD",
    "city": "MADURAI",
    "state": "",
    "pincode": "",
    "phone": "8825776633",
    "email": "samyautocentre@gmail.com",
    "latitude": "9.909282",
    "longitude": "78.107897",
    "dealer_type": ""
  },
  {
    "name": "THIAGARAJAN AUTOMOBILES PVT LT",
    "address": "Palanganatham, Madakulam Main",
    "city": "MADURAI",
    "state": "",
    "pincode": "",
    "phone": "7094477615",
    "email": "commercial@tauto.co.in",
    "latitude": "9.900862",
    "longitude": "78.094256",
    "dealer_type": ""
  },
  {
    "name": "SELVI TYRES",
    "address": "Keela Kondaiyam pettai",
    "city": "TIRUCHIRAPPALLI",
    "state": "",
    "pincode": "",
    "phone": "9443149504",
    "email": "ilangokvs@yahoo.com",
    "latitude": "10.853231",
    "longitude": "78.713112",
    "dealer_type": ""
  },
  {
    "name": "JOSE TYRES",
    "address": "64,GST ROAD,THIRUPRAKUNDRAM",
    "city": "MADURAI",
    "state": "",
    "pincode": "",
    "phone": "9698593339",
    "email": "josetyres.jose@gmail.com",
    "latitude": "9.887415",
    "longitude": "78.075032",
    "dealer_type": ""
  },
  {
    "name": "AATHI TYRES",
    "address": "T.VEPPANGULAM",
    "city": "T.KARIYAPATTI",
    "state": "",
    "pincode": "",
    "phone": "9944552883",
    "email": "AATHITYRES@GMAIL.COM",
    "latitude": "9.673472",
    "longitude": "78.095989",
    "dealer_type": ""
  },
  {
    "name": "JAYARAJ AUTOMOBILES",
    "address": "MADURAI DINDIGUL NH",
    "city": "MADURAI",
    "state": "",
    "pincode": "",
    "phone": "9244577070",
    "email": "PRAKASH@JAYARAJGROUP.COM",
    "latitude": "9.995995",
    "longitude": "78.024787",
    "dealer_type": ""
  },
  {
    "name": "GP ENTERPRISES",
    "address": "GP ENTERPRISES,",
    "city": "THANICHIYAM",
    "state": "",
    "pincode": "",
    "phone": "9894671234",
    "email": "RAM@GPEMADURAI.COM",
    "latitude": "10.001581",
    "longitude": "78.020476",
    "dealer_type": ""
  },
  {
    "name": "JJ TYRES",
    "address": "Arokiapuram, Kallakudi",
    "city": "Arokiapuram",
    "state": "",
    "pincode": "",
    "phone": "8438043008",
    "email": "jpbritto.25@gmail.com",
    "latitude": "10.963296",
    "longitude": "78.933722",
    "dealer_type": ""
  },
  {
    "name": "SRI VENKATESWARA TYRES",
    "address": "34-A/9-B, Thanjai Salai",
    "city": "TIRUVARUR",
    "state": "",
    "pincode": "",
    "phone": "9942984922",
    "email": "svttyres999@gmail.com",
    "latitude": "10.770716",
    "longitude": "79.624882",
    "dealer_type": ""
  },
  {
    "name": "WHEEL WORLD AND TYRES",
    "address": "568/14-A ,BYE PASS ROAD",
    "city": "TIRUVARUR",
    "state": "",
    "pincode": "",
    "phone": "9600618788",
    "email": "wheelworldandtyres@gmail.com",
    "latitude": "10.759797",
    "longitude": "79.643624",
    "dealer_type": ""
  },
  {
    "name": "SREE BALAJI TYRES",
    "address": "8/9 YADAV NAGAR",
    "city": "ARUPPUKOTTAI-VIRUDHU NAGA",
    "state": "",
    "pincode": "",
    "phone": "9952144131",
    "email": "s.suren21@gmail.com",
    "latitude": "9.501746",
    "longitude": "78.115465",
    "dealer_type": ""
  },
  {
    "name": "PRANAV LOGISTICS",
    "address": "Kanyakumari Road",
    "city": "Sayalgudi, Ramanathapuram",
    "state": "",
    "pincode": "",
    "phone": "9585554921",
    "email": "pranavlogistics2009@gmail.com",
    "latitude": "9.160209",
    "longitude": "78.439265",
    "dealer_type": ""
  },
  {
    "name": "GOKUL TYRES",
    "address": "181-D 4, MADURAI ROAD",
    "city": "ARUPPUKOTTAI, Virudhunaga",
    "state": "",
    "pincode": "",
    "phone": "9443559876",
    "email": "venugopalan891@gmail.com",
    "latitude": "9.51616",
    "longitude": "78.094249",
    "dealer_type": ""
  },
  {
    "name": "RANGANAAYAKI AUTO AGENCIES.",
    "address": "93A",
    "city": "KUMBAKONAM",
    "state": "",
    "pincode": "",
    "phone": "9629016688",
    "email": "ranganaayakiautoagencies2009@gmail.com",
    "latitude": "10.955763",
    "longitude": "79.388754",
    "dealer_type": ""
  },
  {
    "name": "SRI AMMAN TYRES",
    "address": "NEAR TEDDY SPECIAL SCHOOL",
    "city": "THIRUMANGALAM",
    "state": "",
    "pincode": "",
    "phone": "7502759177",
    "email": "NAGARAJHARINI349@GMAIL.COM",
    "latitude": "9.807707",
    "longitude": "77.969789",
    "dealer_type": ""
  },
  {
    "name": "K.J. TYRES (KumbakonaM)",
    "address": "102",
    "city": "Kumbakonam",
    "state": "",
    "pincode": "",
    "phone": "9884319091",
    "email": "kjtyreworld@gmail.com",
    "latitude": "10.972705",
    "longitude": "79.4034",
    "dealer_type": ""
  },
  {
    "name": "Balaji Traders",
    "address": "Building No 194/2A1A5",
    "city": "Keelapalur",
    "state": "",
    "pincode": "",
    "phone": "9524352904",
    "email": "sarwan297@gmail.com",
    "latitude": "11.047712",
    "longitude": "79.079997",
    "dealer_type": ""
  },
  {
    "name": "ARAVIND TRADERS",
    "address": "Chennai Road, Koranattu Karupp",
    "city": "KUMBAKONAM",
    "state": "",
    "pincode": "",
    "phone": "7708711228",
    "email": "aravindtraders@outlook.com",
    "latitude": "10.98088",
    "longitude": "79.387569",
    "dealer_type": ""
  },
  {
    "name": "SRI VENKATESWARA TYRES",
    "address": "MODERN NAGAR",
    "city": "DINDIGUL",
    "state": "",
    "pincode": "",
    "phone": "9894915404",
    "email": "srivenkateswaratyresdgl@gmail.com",
    "latitude": "10.380911",
    "longitude": "77.988769",
    "dealer_type": ""
  },
  {
    "name": "Barath Agency",
    "address": "499/3B2A1",
    "city": "Sitharkadu,",
    "state": "",
    "pincode": "",
    "phone": "9965713331",
    "email": "bharathenterprises.be@gmail.com",
    "latitude": "10.983495",
    "longitude": "79.423025",
    "dealer_type": ""
  },
  {
    "name": "PVJ AUTO ACCESSORIES",
    "address": "49/2, 33C, NANDHAVANAM ROAD",
    "city": "DINDIGUL",
    "state": "",
    "pincode": "",
    "phone": "9842199902",
    "email": "PVJDGL@GMAIL.COM",
    "latitude": "10.368288",
    "longitude": "77.97036",
    "dealer_type": ""
  },
  {
    "name": "BALAJI TYRE",
    "address": "6450/601/24, PLOT NO 9,10",
    "city": "DINDIGUL",
    "state": "",
    "pincode": "",
    "phone": "4512435626",
    "email": "balajityres_rajmohan@yahoo.com",
    "latitude": "10.385023",
    "longitude": "77.971943",
    "dealer_type": ""
  },
  {
    "name": "T.AYYADURAI TYRES",
    "address": "36 L, PALANI ROAD, DINDIGUL",
    "city": "DIDINGUL",
    "state": "",
    "pincode": "",
    "phone": "9750434776",
    "email": "tayyathurai73@gmail.com",
    "latitude": "10.366163",
    "longitude": "77.964432",
    "dealer_type": ""
  },
  {
    "name": "SIDDHESH CARS",
    "address": "OPP.VELU MAHAL-TRICHY BYE PASS",
    "city": "DIDINGUL",
    "state": "",
    "pincode": "",
    "phone": "7373787825",
    "email": "siddheshcars@gmail.com",
    "latitude": "10.385888",
    "longitude": "77.967686",
    "dealer_type": ""
  },
  {
    "name": "MESIYA TYRES & WHEEL ALIGNMENT",
    "address": "NH7 MADURAI DINDIGUL ROAD",
    "city": "DINDIGUL",
    "state": "",
    "pincode": "",
    "phone": "9994795402",
    "email": "SURESH.VIJI2020@GMAIL.COM",
    "latitude": "10.294565",
    "longitude": "77.936704",
    "dealer_type": ""
  },
  {
    "name": "DEVAN TYRE WORLD",
    "address": "PERIYAR NAGAR",
    "city": "PUDUKOTTAI",
    "state": "",
    "pincode": "",
    "phone": "9443140012",
    "email": "devantyreworld@gmail.com",
    "latitude": "11.090024",
    "longitude": "79.078138",
    "dealer_type": ""
  },
  {
    "name": "LITHIKA AGENCIES",
    "address": "EB OFFICE ROAD RCC BUILDING",
    "city": "DINDIGUL",
    "state": "",
    "pincode": "",
    "phone": "9585372369",
    "email": "LITHIKAAGENCIES01@GMAIL.COM",
    "latitude": "10.376656",
    "longitude": "77.955791",
    "dealer_type": ""
  },
  {
    "name": "NEW ARUN AUTO SPARES",
    "address": "1/7,KAVIN COMPLEX,BYEPASS ROAD",
    "city": "DINDIGUL",
    "state": "",
    "pincode": "",
    "phone": "9025959303",
    "email": "newarunautospares2017@gmail.com",
    "latitude": "10.369697",
    "longitude": "77.951151",
    "dealer_type": ""
  },
  {
    "name": "SUNDAR TYRE AGENCIES",
    "address": "TPET ROAD",
    "city": "MUSIRI",
    "state": "",
    "pincode": "",
    "phone": "9600059001",
    "email": "musirisenthil@gmail.com",
    "latitude": "10.9516",
    "longitude": "78.4443",
    "dealer_type": ""
  },
  {
    "name": "SRI VENKATESWARA TRANSPORTS &",
    "address": "6/296/E, Ward-6",
    "city": "Padalur East",
    "state": "",
    "pincode": "",
    "phone": "8838280454",
    "email": "vcsrtransport@gmai.com",
    "latitude": "11.088555",
    "longitude": "78.842897",
    "dealer_type": ""
  },
  {
    "name": "AERO TYRE RETREADING",
    "address": "415",
    "city": "MANNARGUDI",
    "state": "",
    "pincode": "",
    "phone": "7373073230",
    "email": "aeroelgi@gmail.com",
    "latitude": "11.099156",
    "longitude": "79.0797",
    "dealer_type": ""
  },
  {
    "name": "BABU TYRES",
    "address": "Pethanachi Nagar,",
    "city": "VIRUDHU NAGAR",
    "state": "",
    "pincode": "",
    "phone": "9443748120",
    "email": "babutyresvnr@gmail.com",
    "latitude": "9.606476",
    "longitude": "77.954894",
    "dealer_type": ""
  },
  {
    "name": "Palaniandavar Tyres",
    "address": "Shop No 1 DR.NO-71",
    "city": "Keeranur",
    "state": "",
    "pincode": "",
    "phone": "9976104261",
    "email": "kannanr8411@gmail.com",
    "latitude": "11.101956",
    "longitude": "79.078472",
    "dealer_type": ""
  },
  {
    "name": "ZENITH TYRES",
    "address": "MADURAI ROAD",
    "city": "VIRUDHUNAGAR",
    "state": "",
    "pincode": "",
    "phone": "9842137007",
    "email": "ZENITHTYRES2023@GMAIL.COM",
    "latitude": "9.591038",
    "longitude": "77.953749",
    "dealer_type": ""
  },
  {
    "name": "NANDHINI TYRES",
    "address": "Building No./Flat No - 3",
    "city": "NAGAPATTINAM",
    "state": "",
    "pincode": "",
    "phone": "9786422115",
    "email": "nandhutyres@gmail.com",
    "latitude": "10.771211",
    "longitude": "79.827562",
    "dealer_type": ""
  },
  {
    "name": "Vishnu Tyre Service",
    "address": "",
    "city": "ARIYALUR",
    "state": "",
    "pincode": "",
    "phone": "9943728221",
    "email": "vishnutyre073@gmail.com",
    "latitude": "11.116017",
    "longitude": "79.165703",
    "dealer_type": ""
  },
  {
    "name": "AMBIGA AUTOMOBILES",
    "address": "SF NO 24/1A1",
    "city": "ARIYALUR",
    "state": "",
    "pincode": "",
    "phone": "9791137237",
    "email": "AMBIGAAUTOMOBILES@GMAIL.COM",
    "latitude": "11.126344",
    "longitude": "79.08786",
    "dealer_type": ""
  },
  {
    "name": "SRI KANDHAN TRADERS",
    "address": "GANDHIJI NAGAR",
    "city": "SEMPATTI",
    "state": "",
    "pincode": "",
    "phone": "9566726550",
    "email": "SRIKANDHANTRADERS2405@GMAIL.COM",
    "latitude": "10.279557",
    "longitude": "77.872577",
    "dealer_type": ""
  },
  {
    "name": "KPR TYRES",
    "address": "EAST STREET 2",
    "city": "PATTAMPUDUR",
    "state": "",
    "pincode": "",
    "phone": "9865281283",
    "email": "KPRTYRES2024@GMAIL.COM",
    "latitude": "9.494418",
    "longitude": "77.941236",
    "dealer_type": ""
  },
  {
    "name": "SHREE VENKATESHWARA TYRES",
    "address": "C.M NAGAR, DINDIGUL ROAD",
    "city": "DINDUGUL",
    "state": "",
    "pincode": "",
    "phone": "9362530057",
    "email": "shreevenkateswaratyres@gmail.com",
    "latitude": "10.527135",
    "longitude": "77.944042",
    "dealer_type": ""
  },
  {
    "name": "SRI SENTHIL TYRES",
    "address": "Madhurapuri, Trichy Road,",
    "city": "THURAIYUR",
    "state": "",
    "pincode": "",
    "phone": "9943026922",
    "email": "senthiltyres.tyr@gmail.com",
    "latitude": "11.135609",
    "longitude": "78.591602",
    "dealer_type": ""
  },
  {
    "name": "SRI  BALAJI  TYRES",
    "address": "8/1/91/ DE,Dindigul Road",
    "city": "Batlagundu",
    "state": "",
    "pincode": "",
    "phone": "9944930636",
    "email": "balajityres_rajmohan@yahoo.com",
    "latitude": "10.169371",
    "longitude": "77.765404",
    "dealer_type": ""
  },
  {
    "name": "SREE LAKSHMI BATTERY ZOONE",
    "address": "Packirisamy Pillai Street",
    "city": "KARAIKAL",
    "state": "",
    "pincode": "",
    "phone": "9965229090",
    "email": "grr.sarathy@gmail.com",
    "latitude": "10.931721",
    "longitude": "79.837817",
    "dealer_type": ""
  },
  {
    "name": "BHAGATHS AUTOCARE CENTRE",
    "address": "\" N.T.ROAD,(KADIGALMANJAPPA RD",
    "city": "SHIMOGA",
    "state": "",
    "pincode": "",
    "phone": "9844077806",
    "email": "bhagath.tyres@gmail.com",
    "latitude": "13.932424",
    "longitude": "75.585479",
    "dealer_type": ""
  },
  {
    "name": "HI-TEC TYRES",
    "address": "\"SHOP NO.G-3, DELTA WEST COMME",
    "city": "MANGALORE",
    "state": "",
    "pincode": "",
    "phone": "9449085071",
    "email": "hitectyres@gmail.com",
    "latitude": "12.867733",
    "longitude": "74.902292",
    "dealer_type": ""
  },
  {
    "name": "SREE BHAVANI  TYRE SHOPPEE",
    "address": "\"ACP-3, AUTO COMPLEX B.H.ROAD",
    "city": "SAGAR",
    "state": "",
    "pincode": "",
    "phone": "9448628113",
    "email": "nandana18872@gmail.com",
    "latitude": "14.166991",
    "longitude": "75.043403",
    "dealer_type": ""
  },
  {
    "name": "SURAKSHA TYRES",
    "address": "KUSHAVATHI - MAIN ROAD  THIRTH",
    "city": "THIRTHAHALLI",
    "state": "",
    "pincode": "",
    "phone": "9448238587",
    "email": "surakshatyrestth@gmail.com",
    "latitude": "13.690925",
    "longitude": "75.253246",
    "dealer_type": ""
  },
  {
    "name": "WHEEL MART",
    "address": "NAWAYATH COLONY, III/222/3/4",
    "city": "BHATKAL",
    "state": "",
    "pincode": "",
    "phone": "9986489599",
    "email": "wheelmartb@gmail.com",
    "latitude": "14.003491",
    "longitude": "74.538993",
    "dealer_type": ""
  },
  {
    "name": "KAMATH & KAMATH",
    "address": "OPP GEETANJALI TALKIES",
    "city": "KUNDAPURA",
    "state": "",
    "pincode": "",
    "phone": "9538382777",
    "email": "mallinath74@gmail.com",
    "latitude": "13.633796",
    "longitude": "74.690328",
    "dealer_type": ""
  },
  {
    "name": "SHIVA TYRES",
    "address": "\"NEAR HOTEL HAVEN INN, SAGAR R",
    "city": "SHIVAMOGGA",
    "state": "",
    "pincode": "",
    "phone": "9448319477",
    "email": "shivatyres77@gmail.com",
    "latitude": "13.939014",
    "longitude": "75.553452",
    "dealer_type": ""
  },
  {
    "name": "PRABHU TYRE CENTRE",
    "address": "\"MAIN ROAD, HEBRI \"",
    "city": "HEBRI",
    "state": "",
    "pincode": "",
    "phone": "8105725757",
    "email": "rak668@gmail.com",
    "latitude": "13.458738",
    "longitude": "74.990519",
    "dealer_type": ""
  },
  {
    "name": "BALARAM TRADERS",
    "address": "S.R.COMPLEX J.P.N. ROAD SHIMOG",
    "city": "SHIMOGA",
    "state": "",
    "pincode": "",
    "phone": "9448207868",
    "email": "balaramtraders@gmail.com",
    "latitude": "13.934162",
    "longitude": "75.569928",
    "dealer_type": ""
  },
  {
    "name": "MRT CO.,",
    "address": "3RD CROSS, GARDEN AREA GARDEN",
    "city": "SHIMOGA",
    "state": "",
    "pincode": "",
    "phone": "9844077764",
    "email": "mrtcosmg1997@gmail.com",
    "latitude": "13.931765",
    "longitude": "75.570558",
    "dealer_type": ""
  },
  {
    "name": "M/S SNEHA DISTRIBUTORS",
    "address": "\"KAVERI NILAYA, PANCHAVATI COL",
    "city": "SHIMOGA",
    "state": "",
    "pincode": "",
    "phone": "9845573734",
    "email": "snehapennzoil@gmail.com",
    "latitude": "13.928375",
    "longitude": "75.571856",
    "dealer_type": ""
  },
  {
    "name": "KARNATAKA TYRES & AGENCIES",
    "address": "\"OPP. STATE BANK OF INDIA B H",
    "city": "SHIMOGA",
    "state": "",
    "pincode": "",
    "phone": "9448120064",
    "email": "johnyjoseph100@gmail.com",
    "latitude": "13.929801",
    "longitude": "75.572369",
    "dealer_type": ""
  },
  {
    "name": "RAZA TYRES",
    "address": "OPP:Mythri Showroom,",
    "city": "Shimoga",
    "state": "",
    "pincode": "",
    "phone": "9945822100",
    "email": "razatyresbsmg@gmail.com",
    "latitude": "13.933509",
    "longitude": "75.585863",
    "dealer_type": ""
  },
  {
    "name": "ASHWINI ENTERPRISES",
    "address": "\"MUNCIPAL COMPLEX, DURGA DEVI",
    "city": "Near Bus Stand, Honnavar",
    "state": "",
    "pincode": "",
    "phone": "8431004413",
    "email": "ravindrakamath56@gmail.com",
    "latitude": "14.280126",
    "longitude": "74.443185",
    "dealer_type": ""
  },
  {
    "name": "AJ Tyres and Automotives",
    "address": "\"794, B H KAIMARA DIST - CHIKK",
    "city": "N R PURA",
    "state": "",
    "pincode": "",
    "phone": "9945238934",
    "email": "joseph08di@gmail.com",
    "latitude": "13.593708",
    "longitude": "75.484727",
    "dealer_type": ""
  },
  {
    "name": "GAJAMUKA TYRES",
    "address": "\"OPP:SARADA NAGAR BHARATHI STR",
    "city": "SRINGERI",
    "state": "",
    "pincode": "",
    "phone": "9449946823",
    "email": "gajamukhatyres577139@gmail.com",
    "latitude": "13.425539",
    "longitude": "75.256109",
    "dealer_type": ""
  },
  {
    "name": "GANGA TYRE TRADERS",
    "address": "\"1247, DWARAKAMAYI COMPLEX, KA",
    "city": "HONNAVAR",
    "state": "",
    "pincode": "",
    "phone": "9482153165",
    "email": "vinaybhat1944@gmail.com",
    "latitude": "14.311291",
    "longitude": "74.429663",
    "dealer_type": ""
  },
  {
    "name": "BHAVANY TYRES",
    "address": "VIDYANAGAR, YELLAPUR ROAD",
    "city": "SIRSI",
    "state": "",
    "pincode": "",
    "phone": "08384",
    "email": "bhavanytyres@gmail.com",
    "latitude": "14.627297",
    "longitude": "74.840901",
    "dealer_type": ""
  },
  {
    "name": "MARIKAMBA TYRES",
    "address": "KUMTA ROAD",
    "city": "SIRSI",
    "state": "",
    "pincode": "",
    "phone": "9449892858",
    "email": "marikambatyressirsi@gmail.com",
    "latitude": "14.630833",
    "longitude": "74.849527",
    "dealer_type": ""
  },
  {
    "name": "MAHALASA AUTO STORES",
    "address": "NATARAJ ROAD SIRSI-581 401 DIS",
    "city": "DIST:NORTH CANARA",
    "state": "",
    "pincode": "",
    "phone": "9242114550",
    "email": "arunbshet@gmail.com",
    "latitude": "14.630844",
    "longitude": "74.849526",
    "dealer_type": ""
  },
  {
    "name": "SRI KRISHNA TYRES",
    "address": "\"M.G.CIRCLE, TARIKERE ROAD BHA",
    "city": "BHADRAVATHI",
    "state": "",
    "pincode": "",
    "phone": "9448129455",
    "email": "bdivakarashetty5@yahoo.co.in",
    "latitude": "13.842363",
    "longitude": "75.697853",
    "dealer_type": ""
  },
  {
    "name": "UMESH AUTO STORES",
    "address": "\"PUNYA COMPLEX, T K ROAD,\"",
    "city": "BHADRAVATI - 577301",
    "state": "",
    "pincode": "",
    "phone": "9844288984",
    "email": "umeshtyres@gmail.com",
    "latitude": "13.846695",
    "longitude": "75.707843",
    "dealer_type": ""
  },
  {
    "name": "SHRI KENGALA PARAMESHWARI",
    "address": "B NO C/284 NEAR KSRTC BUS STAN",
    "city": "NEAR KSRTC BUS STAND KUMT",
    "state": "",
    "pincode": "",
    "phone": "8495843881",
    "email": "deepaknayakkengala@gmail.com",
    "latitude": "14.429801",
    "longitude": "74.417783",
    "dealer_type": ""
  },
  {
    "name": "PAI WHEELS",
    "address": "\"D. NO. 7-188 NH 66, KADEKAR V",
    "city": "Udupi",
    "state": "",
    "pincode": "",
    "phone": "9448383210",
    "email": "paityre@gmail.com",
    "latitude": "13.320024",
    "longitude": "74.73965",
    "dealer_type": ""
  },
  {
    "name": "JANATHA NEW TYRES",
    "address": "G.B. PANTH ROAD UDUPI - 576101",
    "city": "UDUPI",
    "state": "",
    "pincode": "",
    "phone": "9845243493",
    "email": "1961.janathanewtyres.udupi@gmail.com",
    "latitude": "13.320024",
    "longitude": "74.73965",
    "dealer_type": ""
  },
  {
    "name": "CHANDAN TYRES",
    "address": "FLAT NO-CTS No 67/9",
    "city": "KARNATAKA STATE",
    "state": "",
    "pincode": "",
    "phone": "7795920532",
    "email": "snchandan96@gmail.com",
    "latitude": "14.778924",
    "longitude": "75.134831",
    "dealer_type": ""
  },
  {
    "name": "SHREE DANESHWARI TYRES AND LUB",
    "address": "\"STATION ROAD,BYADGI  \"",
    "city": "BYADAGI - HAVERY TQ-58110",
    "state": "",
    "pincode": "",
    "phone": "8105452545",
    "email": "guttalkotresh@gmail.com",
    "latitude": "14.67768",
    "longitude": "75.492792",
    "dealer_type": ""
  },
  {
    "name": "PATTABHI FUELS",
    "address": "KAIMARA CROSS KALASA - 577124",
    "city": "KALASA",
    "state": "",
    "pincode": "",
    "phone": "9448494177",
    "email": "paiprp@yahoo.com",
    "latitude": "13.231382",
    "longitude": "75.364967",
    "dealer_type": ""
  },
  {
    "name": "KIRAN TYRES & WHEEL ALLIGNMENT",
    "address": "KODICAMP",
    "city": "KODICAMP",
    "state": "",
    "pincode": "",
    "phone": "9483673826",
    "email": "kirantyres004@gmail.com",
    "latitude": "13.706669",
    "longitude": "75.827807",
    "dealer_type": ""
  },
  {
    "name": "SRINIDHI AUTO SHOPEE",
    "address": "\"SIDDESHWAR NAGAR,PB ROAD\"",
    "city": "RANEBENNUR 581115,DIST HA",
    "state": "",
    "pincode": "",
    "phone": "9880742510",
    "email": "praveenshetra@gmail.com",
    "latitude": "14.620865",
    "longitude": "75.619366",
    "dealer_type": ""
  },
  {
    "name": "SRINIDHI AUTO SHOPPE",
    "address": "SANATH MULTIPARTS, SIDDESHWAR",
    "city": "RANEBENNUR",
    "state": "",
    "pincode": "",
    "phone": "9880742510",
    "email": "srinidhityres18@gmail.com",
    "latitude": "14.620933",
    "longitude": "75.61939",
    "dealer_type": ""
  },
  {
    "name": "ASUNDI ENTERPRISES",
    "address": "\"TP COMPLEX STALL NO.1/9/10, P",
    "city": "RANEBENNUR",
    "state": "",
    "pincode": "",
    "phone": "9980663379",
    "email": "sudhir.asundi2@gmail.com",
    "latitude": "14.616292",
    "longitude": "75.632438",
    "dealer_type": ""
  },
  {
    "name": "GOLDEN TYRES",
    "address": "UMASHANKAR NAGAR NEAROLD",
    "city": "RANEBENNUR",
    "state": "",
    "pincode": "",
    "phone": "9916331189",
    "email": "goldentyresrnr@gmail.com",
    "latitude": "14.610628",
    "longitude": "75.639086",
    "dealer_type": ""
  },
  {
    "name": "TYRE XPRESS",
    "address": "\"NEELANAGOUDRA COMPLEX, BLOCK",
    "city": "BLOCK OPP:LIC VIDYA NAGAR",
    "state": "",
    "pincode": "",
    "phone": "9844688255",
    "email": "",
    "latitude": "14.799806",
    "longitude": "75.393338",
    "dealer_type": ""
  },
  {
    "name": "SHIVA TYRES",
    "address": "357, NEAR RAVI STATION",
    "city": "CHANNAGIRI",
    "state": "",
    "pincode": "",
    "phone": "9632850606",
    "email": "rudreshamv74@gmail.com",
    "latitude": "14.026159",
    "longitude": "75.914783",
    "dealer_type": ""
  },
  {
    "name": "DYAMALAMBA TYRES",
    "address": "60E NADIG NILAYA NRUPATUNGA RO",
    "city": "CHENNAGIRI",
    "state": "",
    "pincode": "",
    "phone": "9449141535",
    "email": "renukaprasadcng@gmail.com",
    "latitude": "14.023087",
    "longitude": "75.926979",
    "dealer_type": ""
  },
  {
    "name": "MENDES AUTO WHEELS",
    "address": "4-80 (13)",
    "city": "MENDES CENTRE ,MOODBIDRI",
    "state": "",
    "pincode": "",
    "phone": "9449244429",
    "email": "navee.lobo@gmail.com",
    "latitude": "13.081315",
    "longitude": "74.99695",
    "dealer_type": ""
  },
  {
    "name": "TUNGABHADRA TYRES",
    "address": "\"SHOP NO 5, OLD P B ROAD MURUG",
    "city": "HARIHARA 577601",
    "state": "",
    "pincode": "",
    "phone": "9844488838",
    "email": "tungabhadratyres@gmail.com",
    "latitude": "14.516668",
    "longitude": "75.804629",
    "dealer_type": ""
  },
  {
    "name": "SAANVI TRADERS",
    "address": "ASST NO 360/1,350/1,360/1",
    "city": "DAVANGERE",
    "state": "",
    "pincode": "",
    "phone": "9731509370",
    "email": "santhoshvh188@gmail.com",
    "latitude": "14.517078",
    "longitude": "75.80439",
    "dealer_type": ""
  },
  {
    "name": "NANDA SERVICE STATION",
    "address": "26, OLD P.B. ROAD,HARIHAR,",
    "city": "HARIHAR",
    "state": "",
    "pincode": "",
    "phone": "9844162836",
    "email": "mr.shashi7007@gmail.com",
    "latitude": "14.512031",
    "longitude": "75.8155",
    "dealer_type": ""
  },
  {
    "name": "AIGAL TRADING CORPORATION",
    "address": "\"NEAR FISH MARKET,PH.0834-3620",
    "city": "KARNATAKA STATE PIN 58131",
    "state": "",
    "pincode": "",
    "phone": "9448573255",
    "email": "manjuankola2020@gmail.com",
    "latitude": "14.662039",
    "longitude": "74.305786",
    "dealer_type": ""
  },
  {
    "name": "B H N Traders",
    "address": "4090/204, Opp Vani Honda showr",
    "city": "Davanagere",
    "state": "",
    "pincode": "",
    "phone": "9008814145",
    "email": "bhntraders@yahoo.com",
    "latitude": "14.469212",
    "longitude": "75.898432",
    "dealer_type": ""
  },
  {
    "name": "Mega Wheels",
    "address": "\"SANGOLIRAYANNA CIRCLE, DOOR N",
    "city": "Davangere",
    "state": "",
    "pincode": "",
    "phone": "9900084570",
    "email": "megawheels70@gmail.com",
    "latitude": "14.469577",
    "longitude": "75.903828",
    "dealer_type": ""
  },
  {
    "name": "New Shree Sapthagiri Wheel Ali",
    "address": "Patel Automobiles, 398, Ground",
    "city": "Harihar",
    "state": "",
    "pincode": "",
    "phone": "9972343007",
    "email": "santhupatil31@gmail.com",
    "latitude": "14.462552",
    "longitude": "75.922467",
    "dealer_type": ""
  },
  {
    "name": "MALANAD TYRE CARE",
    "address": "\"MALNAD BUILDING, INDIRA GANDH",
    "city": "CHIKMAGALUR",
    "state": "",
    "pincode": "",
    "phone": "9448244453",
    "email": "malnadtyres279@gmail.com",
    "latitude": "13.324235",
    "longitude": "75.772183",
    "dealer_type": ""
  },
  {
    "name": "MAHALASA MARKETING",
    "address": "BASAVESHWAR AUTOMOBILE COMPLEX",
    "city": "SHIGGAON",
    "state": "",
    "pincode": "",
    "phone": "9880758604",
    "email": "parshwanath1972@gmail.com",
    "latitude": "14.98953",
    "longitude": "75.218588",
    "dealer_type": ""
  },
  {
    "name": "S S R Tyres",
    "address": "\"BIRUR ROAD, AJJAMPURA,CHIKMAG",
    "city": "DIST : CHIKMAGALUR",
    "state": "",
    "pincode": "",
    "phone": "9448940329",
    "email": "sudeepsrms@gmail.com",
    "latitude": "13.722487",
    "longitude": "76.002323",
    "dealer_type": ""
  },
  {
    "name": "SREE NANDI TYRES",
    "address": "\"D.NO. #114/5, P.B ROAD\"",
    "city": "DAVANGERE",
    "state": "",
    "pincode": "",
    "phone": "9845073173",
    "email": "sreenandityres@gmail.com",
    "latitude": "14.460686",
    "longitude": "75.929735",
    "dealer_type": ""
  },
  {
    "name": "RIFA ENTERPRISES",
    "address": "106, RCM LINK ROAD",
    "city": "DAVANGERE",
    "state": "",
    "pincode": "",
    "phone": "8892530378",
    "email": "srssannu@gmail.com",
    "latitude": "14.469095",
    "longitude": "75.926075",
    "dealer_type": ""
  },
  {
    "name": "DEEPA TRADERS",
    "address": "1 143C 123",
    "city": "DAKSHINA KANNADA",
    "state": "",
    "pincode": "",
    "phone": "9845460080",
    "email": "deepatradersmrpl@gmail.com",
    "latitude": "12.98945",
    "longitude": "74.830982",
    "dealer_type": ""
  },
  {
    "name": "SHRI DATTA ENTERPRISE",
    "address": "GROUND FLOOR, 6-80, SHARADHA A",
    "city": "SURATHKAL",
    "state": "",
    "pincode": "",
    "phone": "7483878837",
    "email": "shridatta004@gmail.com",
    "latitude": "12.990464",
    "longitude": "74.801416",
    "dealer_type": ""
  },
  {
    "name": "TYRE ZONE",
    "address": "\"GROUND FLOOR,DOOR NO.2/511 2,",
    "city": "MANGALORE",
    "state": "",
    "pincode": "",
    "phone": "6364757979",
    "email": "tyrezonebajpe@gmail.com",
    "latitude": "12.974423",
    "longitude": "74.876968",
    "dealer_type": ""
  },
  {
    "name": "MAX WHEEL CARE",
    "address": "\"# 8-190/18 & 8-190/19 MAX PLA",
    "city": "Mangalore",
    "state": "",
    "pincode": "",
    "phone": "9844335099",
    "email": "malcolm.dsouza90@gmail.com",
    "latitude": "12.983564",
    "longitude": "74.811359",
    "dealer_type": ""
  },
  {
    "name": "NIRMALA ENTERPRISES",
    "address": "SUVARNA COMPLEX MANGALORE ROAD",
    "city": "MANGALORE ROAD,KARKALA",
    "state": "",
    "pincode": "",
    "phone": "9844741611",
    "email": "kamathtyres@yahoo.com",
    "latitude": "12.993434",
    "longitude": "75.242556",
    "dealer_type": ""
  },
  {
    "name": "SS TYRES",
    "address": "Shop No 1,",
    "city": "SURATHKAL",
    "state": "",
    "pincode": "",
    "phone": "9443322276",
    "email": "sasickp@gmail.com",
    "latitude": "12.980143",
    "longitude": "74.81711",
    "dealer_type": ""
  },
  {
    "name": "ABNOOR ENTERPRISES",
    "address": "KUKKADY COMPLEX BAIKAMPADY MAN",
    "city": "MANGALORE - 575011",
    "state": "",
    "pincode": "",
    "phone": "9845088961",
    "email": "abubakerkukkady@yahoo.com",
    "latitude": "12.958308",
    "longitude": "74.807973",
    "dealer_type": ""
  },
  {
    "name": "ANU AGENCIES,",
    "address": "\"MARUTI COMPELX, OPP: SAIBABA",
    "city": "KADUR",
    "state": "",
    "pincode": "",
    "phone": "9740549739",
    "email": "harisha03@gmail.com",
    "latitude": "13.558784",
    "longitude": "76.010945",
    "dealer_type": ""
  },
  {
    "name": "SREE LAXMI  ENTERPRISES",
    "address": "\"SHOP NO. 6,MAJESTIC COMMERCIA",
    "city": "MANGALORE",
    "state": "",
    "pincode": "",
    "phone": "9448149397",
    "email": "bramachandran26@gmail.com",
    "latitude": "12.926187",
    "longitude": "74.867989",
    "dealer_type": ""
  },
  {
    "name": "MANIL WHEEL ALIGNMENT",
    "address": "\"DOOR NO: 2-18-1565/4, SHREE G",
    "city": "Mangalore",
    "state": "",
    "pincode": "",
    "phone": "9845083232",
    "email": "manil_wa@yahoomail.com",
    "latitude": "12.926016",
    "longitude": "74.867975",
    "dealer_type": ""
  },
  {
    "name": "TYRE CARE",
    "address": "\"D.NO.8-29/1E,8-29/1F,29/1G, N",
    "city": "BELTHANGADY",
    "state": "",
    "pincode": "",
    "phone": "9449934000",
    "email": "mafsar534@gmail.com",
    "latitude": "12.92477",
    "longitude": "74.860536",
    "dealer_type": ""
  },
  {
    "name": "YASHASVI ENTERPRISES",
    "address": "GROUND FLOOR, 40",
    "city": "KARNATAKA",
    "state": "",
    "pincode": "",
    "phone": "9880226810",
    "email": "yashasvitraders1@gmail.com",
    "latitude": "13.552337",
    "longitude": "76.018448",
    "dealer_type": ""
  },
  {
    "name": "TULIP WHEEL CARE",
    "address": "\"ARK BUILDING AIRPORT ROAD,D.N",
    "city": "AIRPORT ROAD",
    "state": "",
    "pincode": "",
    "phone": "8242485320",
    "email": "mark.pais@yahoo.co.in",
    "latitude": "12.914808",
    "longitude": "74.86879",
    "dealer_type": ""
  },
  {
    "name": "DIAMOND TYRES",
    "address": "KATHA NO 250/251/252",
    "city": "SASALU",
    "state": "",
    "pincode": "",
    "phone": "9620092533",
    "email": "agsiddeshwara@gmail.com",
    "latitude": "14.207105",
    "longitude": "76.107456",
    "dealer_type": ""
  },
  {
    "name": "KWALITY TRADERS",
    "address": "NO -1-N-5-402 1-2",
    "city": "KARNATAKA",
    "state": "",
    "pincode": "",
    "phone": "8884969699",
    "email": "kwalitytraders99@gmail.com",
    "latitude": "12.907561",
    "longitude": "74.83782",
    "dealer_type": ""
  },
  {
    "name": "ROHIT AUTO CARE",
    "address": "\"PRAGATHI PLAZA, CHILIMBI MANG",
    "city": "MANGALORE 575006",
    "state": "",
    "pincode": "",
    "phone": "9113637246",
    "email": "bhat571@gmail.com",
    "latitude": "12.89469",
    "longitude": "74.835966",
    "dealer_type": ""
  },
  {
    "name": "GOODWHEEL",
    "address": "3-35-1 1, NH17",
    "city": "KARNATAKA",
    "state": "",
    "pincode": "",
    "phone": "7338417416",
    "email": "goodwheelpmlr@gmail.com",
    "latitude": "12.883335",
    "longitude": "74.87101",
    "dealer_type": ""
  },
  {
    "name": "WHEEL  CARE",
    "address": "D. NO. 5-4-183/1,5-4-183/4, HO",
    "city": "Mangaluru",
    "state": "",
    "pincode": "",
    "phone": "9341111992",
    "email": "info@wheelcare.in",
    "latitude": "12.880457",
    "longitude": "74.837192",
    "dealer_type": ""
  },
  {
    "name": "AMRUTHESWARA TYRES",
    "address": "KUMDAVATHI BUILDING BALMATTA M",
    "city": "MANGALORE",
    "state": "",
    "pincode": "",
    "phone": "9945879987",
    "email": "amrutheshwaratyres@yahoo.com",
    "latitude": "12.87302",
    "longitude": "74.850307",
    "dealer_type": ""
  },
  {
    "name": "FASTTRACK INDIA",
    "address": "\"IX-31/1A,GANESH COMPLEX,SULLI",
    "city": "SULLIA",
    "state": "",
    "pincode": "",
    "phone": "9945940060",
    "email": "fasttrackindiatyres@gmail.com",
    "latitude": "12.867981",
    "longitude": "74.850186",
    "dealer_type": ""
  },
  {
    "name": "GRIPLINE TYRES",
    "address": "23-12-1275/5",
    "city": "DHAKSHINA KANNADA",
    "state": "",
    "pincode": "",
    "phone": "7034122255",
    "email": "mangalore@gripline.in",
    "latitude": "12.8512",
    "longitude": "74.844373",
    "dealer_type": ""
  },
  {
    "name": "DATTATRAYA TYRES",
    "address": "\"MURALIDHAR MUTT ROAD,  \"",
    "city": "KARWAR - 581307",
    "state": "",
    "pincode": "",
    "phone": "9448147191",
    "email": "dattatrayatyres@gmail.com",
    "latitude": "14.807645",
    "longitude": "74.132701",
    "dealer_type": ""
  },
  {
    "name": "SHRI MARUTI TYRES",
    "address": "\"SHOP NO.9, WARD NO7, KMC ROAD",
    "city": "KALAGATAGI",
    "state": "",
    "pincode": "",
    "phone": "6361789688",
    "email": "kattimanikalmeshk@gmail.com",
    "latitude": "15.184175",
    "longitude": "74.975513",
    "dealer_type": ""
  },
  {
    "name": "ROSHAN'S TYRES & SERVICES",
    "address": "313 N 1",
    "city": "MUDIPU, BANTWAL TALUK",
    "state": "",
    "pincode": "",
    "phone": "9482745444",
    "email": "roshanstyres.services@gmail.com",
    "latitude": "12.813754",
    "longitude": "74.938415",
    "dealer_type": ""
  },
  {
    "name": "HOT WHEELS",
    "address": " 2-192/5-4",
    "city": "Thokkottu",
    "state": "",
    "pincode": "",
    "phone": "9731253737",
    "email": "abdulshameem341@gmail.com",
    "latitude": "12.818625",
    "longitude": "74.865958",
    "dealer_type": ""
  },
  {
    "name": "HOYSALA TYRES",
    "address": "HASSAN ROAD, KATHA,",
    "city": "BELUR",
    "state": "",
    "pincode": "",
    "phone": "9448957686",
    "email": "sathishsys78@gmail.com",
    "latitude": "13.169363",
    "longitude": "75.876774",
    "dealer_type": ""
  },
  {
    "name": "SRI KARTHIKEYA WHEEL ALIGNMENT",
    "address": "1-1719(A) S.K.COMPLEX NEAR AKS",
    "city": "VITTAL",
    "state": "",
    "pincode": "",
    "phone": "9448625987",
    "email": "srikarthikeyavitla@gmail.com",
    "latitude": "12.77169",
    "longitude": "75.101031",
    "dealer_type": ""
  },
  {
    "name": "AH AUTOKING",
    "address": "BLOCK A, SHOP NO 3,4 &5",
    "city": "DAKSHINA KANNADA",
    "state": "",
    "pincode": "",
    "phone": "9686655544",
    "email": "ahautoking@gmail.com",
    "latitude": "12.766754",
    "longitude": "74.871123",
    "dealer_type": ""
  },
  {
    "name": "NIRANJAN TYRES",
    "address": "\"HOLALKERE ROAD, BESIDE H P PE",
    "city": "HOSADURGA",
    "state": "",
    "pincode": "",
    "phone": "9448088600",
    "email": "niranjantyreshsd@gmail.com",
    "latitude": "13.799116",
    "longitude": "76.271299",
    "dealer_type": ""
  },
  {
    "name": "NEW INDIAN TYRES",
    "address": "01 NEAR NEW BUS STAND",
    "city": "HOSADURGA",
    "state": "",
    "pincode": "",
    "phone": "7899770891",
    "email": "newindiantyres78@gmail.com",
    "latitude": "13.799284",
    "longitude": "76.283794",
    "dealer_type": ""
  },
  {
    "name": "H.R.H TRADERS",
    "address": "NO 3 MUNCIPAL COMPLEX",
    "city": "HOSADURGA",
    "state": "",
    "pincode": "",
    "phone": "9845045851",
    "email": "shanu.arman@gmail.com",
    "latitude": "13.810911",
    "longitude": "76.295509",
    "dealer_type": ""
  },
  {
    "name": "Sri Srinivasa Tyres",
    "address": "19-3-13H, RENUGUNTA, TIRUPATHI",
    "city": "Tirupathi",
    "state": "",
    "pincode": "",
    "phone": "8885556419",
    "email": "SRISRINIVASATYRES5@GMAIL.COM",
    "latitude": "13.629214",
    "longitude": "79.438101",
    "dealer_type": ""
  },
  {
    "name": "B.M.K.TRADERS",
    "address": "\"64/07 , TRUNK ROAD, RAYACHOTI",
    "city": "Rayachoti",
    "state": "",
    "pincode": "",
    "phone": "9441794178",
    "email": "bmktyres@gmail.com",
    "latitude": "14.062259",
    "longitude": "78.752502",
    "dealer_type": ""
  },
  {
    "name": "MALIK TYRES",
    "address": "\"64/70/A , OPP SHADI MAHAL RAY",
    "city": "Raychoti",
    "state": "",
    "pincode": "",
    "phone": "9440479293",
    "email": "maliktyres786@gmail.com",
    "latitude": "14.062259",
    "longitude": "78.752502",
    "dealer_type": ""
  },
  {
    "name": "RAITHU MITRA TYRES",
    "address": "D-NO-2-312-CHITTOOR ROAD",
    "city": "PILLER",
    "state": "",
    "pincode": "",
    "phone": "9849779884",
    "email": "sardartyresworld@gmail.com",
    "latitude": "13.653357",
    "longitude": "78.956424",
    "dealer_type": ""
  },
  {
    "name": "V R DISTRIBUTORS",
    "address": "GHOUSE NAGAR REVENEW NO N16",
    "city": "KADAPA",
    "state": "",
    "pincode": "",
    "phone": "9515899099",
    "email": "v.r.distributorz@gmail.com",
    "latitude": "14.477958",
    "longitude": "78.831465",
    "dealer_type": ""
  },
  {
    "name": "NATIONAL TYRES SHOW ROOM",
    "address": "\"M.G.ROAD, NEAR TULASI ENGLISH",
    "city": "KODURU",
    "state": "",
    "pincode": "",
    "phone": "8464832429",
    "email": "shahensha1718@gmail.com",
    "latitude": "14.48213",
    "longitude": "78.82839",
    "dealer_type": ""
  },
  {
    "name": "SRI RAMA ENTERPRISES",
    "address": "Flat No- 42/10-6, NGO Colony,",
    "city": "CUDDAPAH",
    "state": "",
    "pincode": "",
    "phone": "9493353803",
    "email": "tyrehubkdp@gmail.com",
    "latitude": "14.485458",
    "longitude": "78.819177",
    "dealer_type": ""
  },
  {
    "name": "M/S SAH WHEELS",
    "address": "\"8/1083,BELLARY ROAD,KADAPA\"",
    "city": "KADAPA",
    "state": "",
    "pincode": "",
    "phone": "9885212355",
    "email": "sah.naveed@gmail.com",
    "latitude": "14.487593",
    "longitude": "78.814493",
    "dealer_type": ""
  },
  {
    "name": "ASHOKA TYRES",
    "address": "CB.ROADM 15-1834 THADIPATHRI -",
    "city": "THADIPATHRI",
    "state": "",
    "pincode": "",
    "phone": "9440222014",
    "email": "ashokatyres.tdp@gmail.com",
    "latitude": "14.501694",
    "longitude": "78.791785",
    "dealer_type": ""
  },
  {
    "name": "S K S APOLLO TYRES",
    "address": "NETHAJI ROAD",
    "city": "SATHYAVEDU( ANDHRA PRADES",
    "state": "",
    "pincode": "",
    "phone": "7702129084",
    "email": "cc5214685@gmail.com",
    "latitude": "13.642832",
    "longitude": "79.518369",
    "dealer_type": ""
  },
  {
    "name": "SGS TYRES",
    "address": "\"NO-13/46,DAKNI PET,MADANAPALL",
    "city": "MADANAPALLE,CHITTOOR ,",
    "state": "",
    "pincode": "",
    "phone": "9866532392",
    "email": "sgsakbar1@gmail.com",
    "latitude": "13.542518",
    "longitude": "78.519119",
    "dealer_type": ""
  },
  {
    "name": "M/S SREEKANTH TYRES",
    "address": "14-483 GANDHI ROAD MADANAPALLY",
    "city": "MADANAPALLY",
    "state": "",
    "pincode": "",
    "phone": "9440272770",
    "email": "sreekanth1316@gmail.com",
    "latitude": "13.544103",
    "longitude": "78.516432",
    "dealer_type": ""
  },
  {
    "name": "SRI SRINIVASA TYRES",
    "address": "19-3-13H,19th Ward, ReniGunta",
    "city": "Tirupati",
    "state": "",
    "pincode": "",
    "phone": "8885556419",
    "email": "srisrinivasatyres@gmail.com",
    "latitude": "13.730066",
    "longitude": "79.671407",
    "dealer_type": ""
  },
  {
    "name": "SREE BALAJI TYRES",
    "address": "G.N.T ROAD,SRI POTTI SRIRAMULU",
    "city": "SULLURPETA TOWN AND MANDA",
    "state": "",
    "pincode": "",
    "phone": "7022812338",
    "email": "sreebalajityres2018@gmail.com",
    "latitude": "13.749897",
    "longitude": "79.690872",
    "dealer_type": ""
  },
  {
    "name": "BVS TYRES",
    "address": "1-4-196, NH 67, MV PALLI BADVE",
    "city": "BADVEL",
    "state": "",
    "pincode": "",
    "phone": "9949243361",
    "email": "bvstyres@gmail.com",
    "latitude": "14.743384",
    "longitude": "79.080639",
    "dealer_type": ""
  },
  {
    "name": "BHASKAR DIESEL AGENCIES",
    "address": "\"HPC DEALERS, MBT ROAD, PUNGAN",
    "city": "PUNGANUR",
    "state": "",
    "pincode": "",
    "phone": "9440216216",
    "email": "yreddybhaskarguptha@gmail.com",
    "latitude": "13.363224",
    "longitude": "78.572775",
    "dealer_type": ""
  },
  {
    "name": "RAMYA TUBES & TYRES",
    "address": "ROOM NO 9 ; AGRICULTURE MARKET",
    "city": "YERRAGUNTLA",
    "state": "",
    "pincode": "",
    "phone": "8309281876",
    "email": "ravitejaaravind10@gmail.com",
    "latitude": "14.635195",
    "longitude": "78.54312",
    "dealer_type": ""
  },
  {
    "name": "SRI LAKSHMI VENKATESWARA TYRES",
    "address": "PANCHAYATI BACK SIDE 4-745-2 Y",
    "city": "yerraguntla",
    "state": "",
    "pincode": "",
    "phone": "9885768309",
    "email": "sivareddy1111@gmail.com",
    "latitude": "14.640399",
    "longitude": "78.532619",
    "dealer_type": ""
  },
  {
    "name": "M/S SAIT TYRES",
    "address": "D.NO. 8-498, HIGH ROAD, CHITTO",
    "city": "CHITTOOR",
    "state": "",
    "pincode": "",
    "phone": "9440133474",
    "email": "aslamsait161@gmail.com",
    "latitude": "13.220498",
    "longitude": "79.10598",
    "dealer_type": ""
  },
  {
    "name": "VINAYAKA TYRES",
    "address": "KRISHNA NAGAR",
    "city": "NAGARI",
    "state": "",
    "pincode": "",
    "phone": "9010369995",
    "email": "vinayakatyres369@gmail.com",
    "latitude": "13.219884",
    "longitude": "79.110246",
    "dealer_type": ""
  },
  {
    "name": "DHARSHAN TYRES",
    "address": "NEW BYEPASS ROAD",
    "city": "KUPPAM",
    "state": "",
    "pincode": "",
    "phone": "9603485545",
    "email": "rajappa.dkpm@gmail.com",
    "latitude": "13.21972",
    "longitude": "79.110553",
    "dealer_type": ""
  },
  {
    "name": "SHREE KUBERA RETREADERS",
    "address": "22-200/A1-A , LGB BUILDING",
    "city": "CHITTOOR",
    "state": "",
    "pincode": "",
    "phone": "8309100474",
    "email": "naveenkanth7@gmail.com",
    "latitude": "13.219491",
    "longitude": "79.110667",
    "dealer_type": ""
  },
  {
    "name": "MURUGAN BLUE METAL",
    "address": "NO.1, PLOT NO.1160, GANESH COM",
    "city": "KORATTUR,CHENNAI",
    "state": "",
    "pincode": "",
    "phone": "9841289339",
    "email": "muruganbluemetal2018@gmail.com",
    "latitude": "13.35588",
    "longitude": "79.473521",
    "dealer_type": ""
  },
  {
    "name": "BABU TYRES",
    "address": "18/338 , SHOP NO 11 & 12 CHITT",
    "city": "CHITTOOR",
    "state": "",
    "pincode": "",
    "phone": "9246995006",
    "email": "babutyres9@gmail.com",
    "latitude": "13.213547",
    "longitude": "79.097493",
    "dealer_type": ""
  },
  {
    "name": "Ranga Reddy Apollo Tyres",
    "address": "\"D.NO.1/1091, BYPASS ROAD, KAD",
    "city": "KADIRI",
    "state": "",
    "pincode": "",
    "phone": "9959719694",
    "email": "nbhuvaneswareddy@gmail.com",
    "latitude": "14.106808",
    "longitude": "78.161915",
    "dealer_type": ""
  },
  {
    "name": "D MD ALIKHAN TRADERS",
    "address": "ANGAIALA STREET, TEMPLE BAZAR",
    "city": "KADIRI",
    "state": "",
    "pincode": "",
    "phone": "9985802991",
    "email": "dmdalikhan041@gmail.com",
    "latitude": "14.106552",
    "longitude": "78.16165",
    "dealer_type": ""
  },
  {
    "name": "THIRUMALA TYRES",
    "address": "\"# 11-139/5/1 , MBT ROAD PALAM",
    "city": "PALAMANER",
    "state": "",
    "pincode": "",
    "phone": "9666700137",
    "email": "ajragupathi@gmail.com",
    "latitude": "13.201708",
    "longitude": "78.756598",
    "dealer_type": ""
  },
  {
    "name": "MARUTI TYRES",
    "address": "RAMAPURAM X ROAD",
    "city": "KODAD, MANDAL",
    "state": "",
    "pincode": "",
    "phone": "9177594112",
    "email": "SRISRINIVASA4176@GMAIL.COM",
    "latitude": "14.52",
    "longitude": "78.32",
    "dealer_type": ""
  },
  {
    "name": "BALAJI TYRES",
    "address": "10/810, Near Saint Alphons Lig",
    "city": "MYDUKUR",
    "state": "",
    "pincode": "",
    "phone": "9441012692",
    "email": "balajityresmydukur@gmail.com",
    "latitude": "14.73926",
    "longitude": "78.579421",
    "dealer_type": ""
  },
  {
    "name": "MINERVA ENTERPRISES",
    "address": "\"15/378, FLOOR-, OPP KASETTY H",
    "city": "PRDDATUR",
    "state": "",
    "pincode": "",
    "phone": "9985413999",
    "email": "minervatyresworks@gmail.com",
    "latitude": "14.740183",
    "longitude": "78.574613",
    "dealer_type": ""
  },
  {
    "name": "LIMRA TYRES",
    "address": "State Bank of India, D No-10/3",
    "city": "PRODDATUR",
    "state": "",
    "pincode": "",
    "phone": "9885898240",
    "email": "Limratyres555@gmail.com",
    "latitude": "14.742594",
    "longitude": "78.564759",
    "dealer_type": ""
  },
  {
    "name": "KRISHNA SAI TYRES",
    "address": "9/669 MYDUKUR ROAD CUDDAPAH DI",
    "city": "PRODDATUR",
    "state": "",
    "pincode": "",
    "phone": "9849203833",
    "email": "kstyres96@gmail.com",
    "latitude": "14.745175",
    "longitude": "78.5605",
    "dealer_type": ""
  },
  {
    "name": "Sri Sai Raghavendra Tyres",
    "address": "\"D.NO:15/256 , MYDUKUR ROAD ,",
    "city": "PRODDATUR",
    "state": "",
    "pincode": "",
    "phone": "9948099804",
    "email": "satish.tyres4@gmail.com",
    "latitude": "14.746882",
    "longitude": "78.556754",
    "dealer_type": ""
  },
  {
    "name": "SIVA SAKTHI TYRES",
    "address": "\"4/7/6 SIDE,BYPASS ROAD,\"",
    "city": "PULIVENDULA",
    "state": "",
    "pincode": "",
    "phone": "9440406323",
    "email": "sivasakthityres81@gmail.com",
    "latitude": "14.418622",
    "longitude": "78.223091",
    "dealer_type": ""
  },
  {
    "name": "SRI HARI TRADERS",
    "address": "NO.370/B",
    "city": "SHOLINGHUR",
    "state": "",
    "pincode": "",
    "phone": "9344715603",
    "email": "sriharieee.90@gmail.com",
    "latitude": "13.102101",
    "longitude": "79.417719",
    "dealer_type": ""
  },
  {
    "name": "SRI MARUTHI TYRES",
    "address": "GROUND ,MAINROAD RANGASUMUDRAM",
    "city": "PORIMAMILLA",
    "state": "",
    "pincode": "",
    "phone": "9133347324",
    "email": "psrinumallu@gmail.com",
    "latitude": "14.996845",
    "longitude": "78.990316",
    "dealer_type": ""
  },
  {
    "name": "ANR TYRE WORLD",
    "address": "1-215",
    "city": "BANAGANAPALLE",
    "state": "",
    "pincode": "",
    "phone": "9642244166",
    "email": "ANRTYREWORLD@GMAIL.COM",
    "latitude": "14.999",
    "longitude": "78.99",
    "dealer_type": ""
  },
  {
    "name": "TEJA TRUCK WHEELS",
    "address": "PLOT NO. 14",
    "city": "NELLORE",
    "state": "",
    "pincode": "",
    "phone": "8019863677",
    "email": "tejatruckwheels@gmail.com",
    "latitude": "14.40176",
    "longitude": "79.945533",
    "dealer_type": ""
  },
  {
    "name": "ARUNA TYRES",
    "address": "PLOT 70/71, 18/1, AUTO NAGAR P",
    "city": "NELLORE",
    "state": "",
    "pincode": "",
    "phone": "9391387553",
    "email": "arunatyresnellore@gmail.com",
    "latitude": "14.406735",
    "longitude": "79.945681",
    "dealer_type": ""
  },
  {
    "name": "SRI RAMA TYRES AND TUBES",
    "address": "MSR COMPLEX,WATER TANK ROAD",
    "city": "NELLORE",
    "state": "",
    "pincode": "",
    "phone": "7093733291",
    "email": "sriramatyresandtubes@gmail.com",
    "latitude": "14.405506",
    "longitude": "79.949416",
    "dealer_type": ""
  },
  {
    "name": "KAMADHENU TYRES",
    "address": "NEAR APMC MARKET",
    "city": "KOLAR",
    "state": "",
    "pincode": "",
    "phone": "6364829544",
    "email": "sarojkarthik1989@gmail.com",
    "latitude": "13.340496",
    "longitude": "78.205066",
    "dealer_type": ""
  },
  {
    "name": "R K ENTERPRISES",
    "address": "SAVITHRI NAGAR,",
    "city": "NELLORE",
    "state": "",
    "pincode": "",
    "phone": "6309677237",
    "email": "ravinellore2020@gmail.com",
    "latitude": "14.416274",
    "longitude": "79.958098",
    "dealer_type": ""
  },
  {
    "name": "SRI BALAJI TYRES",
    "address": "\"IST FLOOR,D.NO.25/2/890A,IST",
    "city": "Nellore",
    "state": "",
    "pincode": "",
    "phone": "7505333999",
    "email": "bsreddy2050@gmail.com",
    "latitude": "14.423408",
    "longitude": "79.963354",
    "dealer_type": ""
  },
  {
    "name": "Hari Hara Traders",
    "address": "1/744 muddanuru road",
    "city": "andhra pradesh",
    "state": "",
    "pincode": "",
    "phone": "8885606162",
    "email": "harihara1981623@gmail.com",
    "latitude": "14.844015",
    "longitude": "78.382152",
    "dealer_type": ""
  },
  {
    "name": "R.M.AUTOMOBILES",
    "address": "Main Road, Mumbai Highway",
    "city": "BUCHI REDDY PALEM (M)",
    "state": "",
    "pincode": "",
    "phone": "8985980778",
    "email": "shaikrashed586@gmail.com",
    "latitude": "14.456502",
    "longitude": "79.987931",
    "dealer_type": ""
  },
  {
    "name": "SRI BALAJI TYRES",
    "address": "PALAMANERI ROAD, KONDASAMUDRAM",
    "city": "GUDIYATHAM, VELLORE",
    "state": "",
    "pincode": "",
    "phone": "7305245442",
    "email": "sribalajityres2015@gmail.com",
    "latitude": "12.945214",
    "longitude": "78.875922",
    "dealer_type": ""
  },
  {
    "name": "VELLORE WHEEL ALIGNER",
    "address": "SATHUVACHA 7 ARCOT ROAD, RANGA",
    "city": "VELLORE",
    "state": "",
    "pincode": "",
    "phone": "9025632009",
    "email": "vellorewheelaligner@gmail.com",
    "latitude": "12.940776",
    "longitude": "79.175169",
    "dealer_type": ""
  },
  {
    "name": "SREE ARUNAI TYRES",
    "address": "75/1, MATHLANGULA STREET",
    "city": "TIRUVANNAMALAI",
    "state": "",
    "pincode": "",
    "phone": "9487535091",
    "email": "",
    "latitude": "12.944015",
    "longitude": "79.198488",
    "dealer_type": ""
  },
  {
    "name": "ARUNAI TYRE SERVICE",
    "address": "MATHALANKULA MAIN ROAD",
    "city": "TIRUVANNAMALAI",
    "state": "",
    "pincode": "",
    "phone": "9487535091",
    "email": "tvmats1978@gmail.com",
    "latitude": "12.944006",
    "longitude": "79.198499",
    "dealer_type": ""
  },
  {
    "name": "WHEELS AND TYRES",
    "address": "5/22, NEW BYEPASS ROAD,",
    "city": "VELLORE",
    "state": "",
    "pincode": "",
    "phone": "9362253028",
    "email": "vlr_wheelstyres@yahoo.com",
    "latitude": "12.935118",
    "longitude": "79.144747",
    "dealer_type": ""
  },
  {
    "name": "SRI VENKATESWARA TYRES",
    "address": "03, KAMARAJ NAGAR,",
    "city": "VELLORE",
    "state": "",
    "pincode": "",
    "phone": "7339020523",
    "email": "srivenkateswaratyres18@gmail.com",
    "latitude": "12.93472",
    "longitude": "79.144583",
    "dealer_type": ""
  },
  {
    "name": "SRI BALAJEE AGENCIES",
    "address": "5, NEW BYE PASS ROAD",
    "city": "VELLORE",
    "state": "",
    "pincode": "",
    "phone": "9345238989",
    "email": "sribalajeeagencies@ymail.com",
    "latitude": "12.933768",
    "longitude": "79.142712",
    "dealer_type": ""
  },
  {
    "name": "S S AGENCIES",
    "address": "6/2A, NEW BUS STAND BACK SIDE,",
    "city": "OLD KATPADI SALAI. VELLOR",
    "state": "",
    "pincode": "",
    "phone": "9443623860",
    "email": "",
    "latitude": "12.932315",
    "longitude": "79.13514",
    "dealer_type": ""
  },
  {
    "name": "JAYALAKSHMI TYRES",
    "address": "2/6,2/7,2/8,2/9, KK TOWERS",
    "city": "VELLORE",
    "state": "",
    "pincode": "",
    "phone": "9843643656",
    "email": "jayalakshmityres6@gmail.com",
    "latitude": "12.930534",
    "longitude": "79.132156",
    "dealer_type": ""
  },
  {
    "name": "NEW SRI LAKSHMI TYRES",
    "address": "ESWARAN KOIL ST",
    "city": "POIGAI, VELLORE",
    "state": "",
    "pincode": "",
    "phone": "9487410867",
    "email": "sureshkavi427@gmail.com",
    "latitude": "12.916935",
    "longitude": "79.04567",
    "dealer_type": ""
  },
  {
    "name": "SRI MANJUNATHA TYRES",
    "address": "\"# 720/659, CHELUR ROAD  \"",
    "city": "CHINTAMANI, CHIKBALLAPUR",
    "state": "",
    "pincode": "",
    "phone": "9844956756",
    "email": "bobbyvenkyraj@gmail.com",
    "latitude": "13.408302",
    "longitude": "78.064774",
    "dealer_type": ""
  },
  {
    "name": "SHANTHI ENTERPRISES",
    "address": "PLOT NO 1",
    "city": "Narasingapuram,Ranipet",
    "state": "",
    "pincode": "",
    "phone": "9952231619",
    "email": "bsk.rpt24@gmail.com",
    "latitude": "12.950741",
    "longitude": "79.311138",
    "dealer_type": ""
  },
  {
    "name": "J.G.P ENTERPRISES",
    "address": "Building No./Flat No.: 8/21",
    "city": "PUDI",
    "state": "",
    "pincode": "",
    "phone": "9445215024",
    "email": "jgpenterprises1977@gmail.com",
    "latitude": "13.574504",
    "longitude": "80.045831",
    "dealer_type": ""
  },
  {
    "name": "Jaisurya Agencies",
    "address": "11,Sholingar to Arakkonam Road",
    "city": " Kainoor Village ,Arakkon",
    "state": "",
    "pincode": "",
    "phone": "9444219821",
    "email": "harikrishnan.apr@gmail.com",
    "latitude": "13.08415",
    "longitude": "79.64081",
    "dealer_type": ""
  },
  {
    "name": "SRI BALAJI AGENCIES",
    "address": "M.B.T.ROAD,MUTHUKADAI,RANIPET",
    "city": "RANIPET",
    "state": "",
    "pincode": "",
    "phone": "9443267834",
    "email": "balajiagencies24@gmail.com",
    "latitude": "12.931564",
    "longitude": "79.33636",
    "dealer_type": ""
  },
  {
    "name": "SRI GANESH TYRES",
    "address": "BYE PASS ROAD",
    "city": "SEVOOR, ARNI",
    "state": "",
    "pincode": "",
    "phone": "9894582207",
    "email": "sriganeshtyres2013@gmail.com",
    "latitude": "12.930129",
    "longitude": "79.33509",
    "dealer_type": ""
  },
  {
    "name": "GLOBAL TYRES",
    "address": "119C/3, BY PASS ROAD",
    "city": "RANIPET",
    "state": "",
    "pincode": "",
    "phone": "9597925257",
    "email": "globaltyresranipet@gmail.com",
    "latitude": "12.926377",
    "longitude": "79.348123",
    "dealer_type": ""
  },
  {
    "name": "J G P ENTERPRISES",
    "address": "NO.364/3B2A, GNT SALAI",
    "city": "THIRUVALLUR",
    "state": "",
    "pincode": "",
    "phone": "7845893036",
    "email": "jgpenterprises2006@gmail.com",
    "latitude": "13.525728",
    "longitude": "80.075521",
    "dealer_type": ""
  },
  {
    "name": "Sree Krishna Tyres Sales And S",
    "address": "\"28-69/1 EXT,",
    "city": "GOVINDAPALEM",
    "state": "",
    "pincode": "",
    "phone": "9652504162",
    "email": "sreekrishnatyres1408@gmail.com",
    "latitude": "13.519587",
    "longitude": "80.083313",
    "dealer_type": ""
  },
  {
    "name": "SRI VENKATESWARA TYRES",
    "address": "Maruti Nexa Bhargavi Automobil",
    "city": "TIRUPATI",
    "state": "",
    "pincode": "",
    "phone": "9491455127",
    "email": "srivenkateswaratyres1989@gmail.com",
    "latitude": "13.519587",
    "longitude": "80.083313",
    "dealer_type": ""
  },
  {
    "name": "SUNDEEP MOTORS",
    "address": "\"PANAGAL ROAD, SRIKALAHASTI\"",
    "city": "SRIKALAHASTI",
    "state": "",
    "pincode": "",
    "phone": "9848294869",
    "email": "sundeepmotorsskht@gmail.com",
    "latitude": "13.519587",
    "longitude": "80.083313",
    "dealer_type": ""
  },
  {
    "name": "ARTHI AGENCIES",
    "address": "GNT ROAD",
    "city": "RAMAPURAM",
    "state": "",
    "pincode": "",
    "phone": "9894544125",
    "email": "arthiagenciesravi@gmail.com",
    "latitude": "13.515167",
    "longitude": "80.088763",
    "dealer_type": ""
  },
  {
    "name": "SRI SIVA SAI TRADERS",
    "address": "\"3-2-273, 4TH STREET, RAJAGOPA",
    "city": "NAIDUPETA",
    "state": "",
    "pincode": "",
    "phone": "9059908777",
    "email": "naiduv.pradeep@gmail.com",
    "latitude": "13.514812",
    "longitude": "80.089294",
    "dealer_type": ""
  },
  {
    "name": "R J WHEEL TECH",
    "address": "NH 565",
    "city": "PAMUR",
    "state": "",
    "pincode": "",
    "phone": "9490275789",
    "email": "rjwheeltech@gmail.com",
    "latitude": "15.097261",
    "longitude": "79.417538",
    "dealer_type": ""
  },
  {
    "name": "Aleem Tyres",
    "address": "DVG ROAD NEAR CORP. BANK BAGEP",
    "city": "Bagepalli  561 207",
    "state": "",
    "pincode": "",
    "phone": "9901188885",
    "email": "aleemtyres@gmail.com",
    "latitude": "13.78534",
    "longitude": "77.779557",
    "dealer_type": ""
  },
  {
    "name": "APPA TYRES",
    "address": "MBT Road",
    "city": "Kondapuram Colony, Ranipe",
    "state": "",
    "pincode": "",
    "phone": "8925498512",
    "email": "appatyres2019@gmail.com",
    "latitude": "12.896539",
    "longitude": "79.504428",
    "dealer_type": ""
  },
  {
    "name": "J.S.R ENTERPRISES",
    "address": "\"CHIKKABALLAPUR ROAD, SARIGE N",
    "city": "KOLAR",
    "state": "",
    "pincode": "",
    "phone": "9916713999",
    "email": "1991balajiyadav@gmail.com",
    "latitude": "13.12441",
    "longitude": "78.120995",
    "dealer_type": ""
  },
  {
    "name": "K.C.ENTERPRISES",
    "address": "NO.2/3B, M C ROAD",
    "city": "VELLORE",
    "state": "",
    "pincode": "",
    "phone": "6381646828",
    "email": "varathankrishnan1973@gmail.com",
    "latitude": "12.802854",
    "longitude": "78.736003",
    "dealer_type": ""
  },
  {
    "name": "V TYRES AND ALIGNMENT",
    "address": "PLOT NO 2919 KAKKALUR BYE PASS",
    "city": "TIRUVALLUR",
    "state": "",
    "pincode": "",
    "phone": "9444388321",
    "email": "vtyres16@gmail.com",
    "latitude": "13.136985",
    "longitude": "79.916304",
    "dealer_type": ""
  },
  {
    "name": "KARNATAKA TYRE CARE CENTRE",
    "address": "52/3",
    "city": "KOLAR",
    "state": "",
    "pincode": "",
    "phone": "7022140640",
    "email": "karnatakatyrecare@gmail.com",
    "latitude": "13.120683",
    "longitude": "78.096492",
    "dealer_type": ""
  },
  {
    "name": "SREE KRISHNAA TYRES",
    "address": " NO.11/93- BY-PASS ROAD,GUMMID",
    "city": "GUMMUDIPOONDI",
    "state": "",
    "pincode": "",
    "phone": "9566538760",
    "email": "aswini.kavya100@gmail.com",
    "latitude": "13.406395",
    "longitude": "80.124038",
    "dealer_type": ""
  },
  {
    "name": "SRI GAJALAKSHMI TYRE RETREADIN",
    "address": "0",
    "city": "kolar",
    "state": "",
    "pincode": "",
    "phone": "9449245962",
    "email": "baburao30876@gmail.com",
    "latitude": "12.959711",
    "longitude": "78.280519",
    "dealer_type": ""
  },
  {
    "name": "SHREE ENTERPRISES",
    "address": "Gudibanda road",
    "city": "Kakalachinte",
    "state": "",
    "pincode": "",
    "phone": "9538562223",
    "email": "pavanrsp3939@gmail.com",
    "latitude": "13.591723",
    "longitude": "77.776903",
    "dealer_type": ""
  },
  {
    "name": "PRABU ENTERPRISES",
    "address": "CC ROAD,",
    "city": "PUDUPETTAI,KANNAMANGALAM",
    "state": "",
    "pincode": "",
    "phone": "9171033455",
    "email": "prabhutyres@gmail.com",
    "latitude": "12.745531",
    "longitude": "79.151657",
    "dealer_type": ""
  },
  {
    "name": "SRI CHANNAKESHAVA TYRES",
    "address": "12, Chinthamani Road, Jagupete",
    "city": "CHICKKABALLAPURA",
    "state": "",
    "pincode": "",
    "phone": "7259529172",
    "email": "muralia040@gmail.com",
    "latitude": "13.384451",
    "longitude": "77.85768",
    "dealer_type": ""
  },
  {
    "name": "SRI GANESH AGENCIES",
    "address": "NAGALAPURAM ROAD,",
    "city": "Uthukkottai, Tiruvallur,",
    "state": "",
    "pincode": "",
    "phone": "9498039211",
    "email": "sriganeshagenciesukt@gmail.com",
    "latitude": "13.21307",
    "longitude": "80.029008",
    "dealer_type": ""
  },
  {
    "name": "SRI SAI TYRES",
    "address": "\"SY NO.206/1,SH NO.6/7, KOLAR",
    "city": "BANGARPET",
    "state": "",
    "pincode": "",
    "phone": "7899098620",
    "email": "msubra1978@gmail.com",
    "latitude": "13.007765",
    "longitude": "78.172922",
    "dealer_type": ""
  },